stop_id,stop_name,stop_desc,stop_lat,stop_lon,zone_id,stop_url,location_type,parent_station
101014,"WILLIS AV/E 138 ST",,  40.808930, -73.922855,,,0,
101015,"WILLIS AV/E 140 ST",,  40.810634, -73.921632,,,0,
101017,"WILLIS AV/E 144 ST",,  40.813111, -73.919823,,,0,
101018,"WILLIS AV/E 146 ST",,  40.814368, -73.918968,,,0,
101069,"WILLIS AV/E 144 ST",,  40.812711, -73.920405,,,0,
101071,"WILLIS AV/E 141 ST",,  40.810837, -73.921772,,,0,
101072,"WILLIS AV/E 138 ST",,  40.809254, -73.922909,,,0,
101074,"E 138 ST/3 AV",,  40.810945, -73.926956,,,0,
102839,"LINCOLN AV/BRUCKNER Bl",,  40.807938, -73.929474,,,0,
103708,"BERGEN AV/E 149 ST",,  40.815878, -73.916343,,,0,
103772,"BERGEN AV/E 149 ST",,  40.816234, -73.915859,,,0,
400001,"4 AV/E 10 ST",,  40.731342, -73.990292,,,0,
400002,"4 AV/E 12 ST",,  40.732608, -73.989958,,,0,
400003,"4 AV/E 13 ST",,  40.733936, -73.989720,,,0,
400007,"PARK AV S/E 21 ST",,  40.738976, -73.987053,,,0,
400026,"MADISON AV/E 63 ST",,  40.766274, -73.969329,,,0,
400028,"MADISON AV/E 67 ST",,  40.768812, -73.967483,,,0,
400029,"MADISON AV/E 69 ST",,  40.770075, -73.966558,,,0,
400030,"MADISON AV/E 72 ST",,  40.771802, -73.965308,,,0,
400031,"MADISON AV/E 74 ST",,  40.772774, -73.964610,,,0,
400032,"MADISON AV/E 77 ST",,  40.775322, -73.962739,,,0,
400033,"MADISON AV/E 81 ST",,  40.777452, -73.961191,,,0,
400034,"MADISON AV/E 83 ST",,  40.778793, -73.960206,,,0,
400036,"MADISON AV/E 86 ST",,  40.781155, -73.958483,,,0,
400037,"MADISON AV/E 89 ST",,  40.782676, -73.957373,,,0,
400038,"MADISON AV/E 91 ST",,  40.784360, -73.956137,,,0,
400039,"MADISON AV/E 93 ST",,  40.785636, -73.955205,,,0,
400041,"MADISON AV/E 98 ST",,  40.788413, -73.953180,,,0,
400042,"MADISON AV/E 101 ST",,  40.790304, -73.951799,,,0,
400043,"MADISON AV/E 102 ST",,  40.791371, -73.951022,,,0,
400044,"MADISON AV/E 104 ST",,  40.792159, -73.950447,,,0,
400045,"MADISON AV/E 106 ST",,  40.793434, -73.949511,,,0,
400046,"MADISON AV/E 107 ST",,  40.794551, -73.948694,,,0,
400047,"MADISON AV/E 109 ST",,  40.795813, -73.947779,,,0,
400048,"MADISON AV/E 112 ST",,  40.797494, -73.946553,,,0,
400050,"MADISON AV/E 116 ST",,  40.800405, -73.944495,,,0,
400051,"MADISON AV/E 118 ST",,  40.801507, -73.943618,,,0,
400053,"MADISON AV/E 123 ST",,  40.804777, -73.941328,,,0,
400054,"MADISON AV/E 125 ST",,  40.806015, -73.940348,,,0,
400055,"MADISON AV/E 127 ST",,  40.807247, -73.939459,,,0,
400056,"MADISON AV/E 129 ST",,  40.808511, -73.938536,,,0,
400057,"MADISON AV/E 132 ST",,  40.810426, -73.937108,,,0,
400059,"5 AV/E 135 ST",,  40.813125, -73.937224,,,0,
400060,"5 AV/E 138 ST",,  40.814463, -73.936251,,,0,
400061,"W 139 ST/5 AV",,  40.815616, -73.936283,,,0,
400062,"MALCOLM X BL/W 139 ST",,  40.816940, -73.938615,,,0,
400065,"MALCOLM X BL/W 145 ST",,  40.820680, -73.935873,,,0,
400066,"W 147 ST/MALCOLM X BL",,  40.821952, -73.935729,,,0,
400067,"W 147 ST/ADAM C POWELL BL",,  40.822853, -73.937867,,,0,
400070,"TRINITY PL/RECTOR ST",,  40.708007, -74.012714,,,0,
400071,"CHURCH ST/LIBERTY ST",,  40.710016, -74.011358,,,0,
400081,"CLEVELAND  PL/SPRING ST",,  40.722433, -73.997008,,,0,
400083,"LAFAYETTE ST/E HOUSTON ST",,  40.725170, -73.995221,,,0,
400085,"LAFAYETTE ST/E 4 ST",,  40.728066, -73.992849,,,0,
400086,"LAFAYETTE ST/ASTOR PL",,  40.729751, -73.991427,,,0,
400087,"W 146 ST/MALCOLM X BL",,  40.821178, -73.935956,,,0,
400088,"MALCOLM X BL/W 145 ST",,  40.820359, -73.936460,,,0,
400089,"MALCOLM X BL/W 142 ST",,  40.818247, -73.938003,,,0,
400091,"W 139 ST/MALCOLM X BL",,  40.816381, -73.938746,,,0,
400092,"5 AV/W 138 ST",,  40.815202, -73.935980,,,0,
400093,"5 AV/W 137 ST",,  40.813791, -73.937003,,,0,
400094,"5 AV/W 135 ST",,  40.812365, -73.938045,,,0,
400095,"5 AV/W 132 ST",,  40.810620, -73.939282,,,0,
400096,"5 AV/W 130 ST",,  40.809347, -73.940208,,,0,
400097,"5 AV/W 128 ST",,  40.808076, -73.941141,,,0,
400098,"5 AV/W 125 ST",,  40.806137, -73.942555,,,0,
400099,"MT MORRIS PK W/W 124 ST",,  40.806190, -73.944603,,,0,
400100,"MT MORRIS PK W/W 121 ST",,  40.804583, -73.945660,,,0,
400101,"W 120 ST/5 AV",,  40.803220, -73.944671,,,0,
400102,"5 AV/W 118 ST",,  40.801694, -73.945835,,,0,
400103,"5 AV/W 116 ST",,  40.800355, -73.946815,,,0,
400105,"5 AV/W 112 ST",,  40.797860, -73.948595,,,0,
400107,"5 AV/EAST 109 ST",,  40.796533, -73.949570,,,0,
400108,"5 AV/E 108 ST",,  40.795513, -73.950319,,,0,
400109,"5 AV/E 106 ST",,  40.794176, -73.951287,,,0,
400110,"5 AV/E 104 ST",,  40.793073, -73.952097,,,0,
400111,"5 AV/E 102 ST",,  40.791570, -73.953182,,,0,
400115,"5 AV/E 94 ST",,  40.786559, -73.956865,,,0,
400116,"5 AV/E 92 ST",,  40.785462, -73.957660,,,0,
400117,"5 AV/E 90 ST",,  40.783993, -73.958712,,,0,
400118,"5 AV/E 87 ST",,  40.782181, -73.960036,,,0,
400119,"5 AV/E 84 ST",,  40.780435, -73.961321,,,0,
400120,"5 AV/E 80 ST",,  40.777397, -73.963488,,,0,
400121,"5 AV/E 79 ST",,  40.776724, -73.963977,,,0,
400122,"5 AV/E 77 ST",,  40.775610, -73.964837,,,0,
400123,"5 AV/E 75 ST",,  40.774356, -73.965776,,,0,
400124,"5 AV/E 72 ST",,  40.771799, -73.967626,,,0,
400125,"5 AV/E 69 ST",,  40.770259, -73.968739,,,0,
400126,"5 AV/E 65 ST",,  40.768234, -73.970238,,,0,
400127,"5 AV/E 63 ST",,  40.766855, -73.971183,,,0,
400128,"5 AV/E 61 ST",,  40.766083, -73.971777,,,0,
400153,"BROADWAY/WAVERLY PL",,  40.729400, -73.993516,,,0,
400154,"BROADWAY/W 3 ST",,  40.727539, -73.995100,,,0,
400155,"BROADWAY/BLEECKER ST",,  40.726263, -73.996172,,,0,
400157,"BROADWAY/SPRING ST",,  40.722843, -73.999066,,,0,
400159,"BROADWAY/GRAND ST",,  40.720691, -74.000891,,,0,
400166,"BROADWAY/PARK PL",,  40.712679, -74.007665,,,0,
400168,"BROADWAY/CORTLANDT ST",,  40.709969, -74.009942,,,0,
400170,"BROADWAY/RECTOR ST",,  40.707554, -74.011960,,,0,
400176,"E 9 ST/BROADWAY",,  40.731425, -73.992408,,,0,
400224,"CENTRAL PK N/MALCOLM X BL",,  40.798395, -73.952601,,,0,
400225,"CENTRAL PK N/ADAM C POWELL BL",,  40.799354, -73.954975,,,0,
400226,"ADAM C POWELL BL/W 113 ST",,  40.801484, -73.953579,,,0,
400227,"ADAM C POWELL BL/W 137 ST",,  40.816789, -73.942405,,,0,
400228,"ADAM C POWELL BL/W 116 ST",,  40.803426, -73.952158,,,0,
400230,"ADAM C POWELL BL/W 121 ST",,  40.806598, -73.949844,,,0,
400231,"ADAM C POWELL BL/W 123 ST",,  40.807520, -73.949175,,,0,
400233,"ADAM C POWELL BL/W 127 ST",,  40.810475, -73.947009,,,0,
400234,"ADAM C POWELL BL/W 129 ST",,  40.811718, -73.946105,,,0,
400236,"ADAM C POWELL BL/W 133 ST",,  40.814190, -73.944300,,,0,
400237,"ADAM C POWELL BL/W 135 ST",,  40.815549, -73.943309,,,0,
400238,"ADAM C POWELL BL/W 139 ST",,  40.818034, -73.941490,,,0,
400239,"ADAM C POWELL BL/W 141 ST",,  40.819296, -73.940571,,,0,
400240,"ADAM C POWELL BL/W 143 ST",,  40.820515, -73.939681,,,0,
400241,"ADAM C POWELL BL/W 145 ST",,  40.821878, -73.938687,,,0,
400242,"ADAM C POWELL BL/W 147 ST",,  40.823105, -73.937789,,,0,
400248,"EDGECOMBE AV/W 155 ST",,  40.830904, -73.940279,,,0,
400249,"EDGECOMBE AV/W 158 ST",,  40.832912, -73.939461,,,0,
400250,"EDGECOMBE AV/W 160 ST",,  40.834045, -73.938133,,,0,
400251,"EDGECOMBE AV/W 162 ST",,  40.835242, -73.937496,,,0,
400252,"EDGECOMBE AV/W 164 ST",,  40.836657, -73.936852,,,0,
400258,"BROADWAY/W 168 ST",,  40.841041, -73.939971,,,0,
400259,"W 166 ST/ST NICHOLAS AV",,  40.839624, -73.940184,,,0,
400263,"EDGECOMBE AV/W 164 ST",,  40.836219, -73.937231,,,0,
400264,"EDGECOMBE AV/W 162 ST",,  40.835011, -73.937775,,,0,
400265,"EDGECOMBE AV/W 160 ST",,  40.833653, -73.938817,,,0,
400266,"EDGECOMBE AV/W 158 ST",,  40.832421, -73.939905,,,0,
400267,"EDGECOMBE AV/W 155 ST",,  40.830618, -73.940438,,,0,
400268,"W 155 ST/EDGECOMBE AV",,  40.830182, -73.939846,,,0,
400271,"ADAM C POWELL BL/W 154 ST",,  40.827305, -73.935386,,,0,
400272,"ADAM C POWELL BL/W 151 ST",,  40.826047, -73.936048,,,0,
400273,"ADAM C POWELL BL/W 149 ST",,  40.824628, -73.937101,,,0,
400274,"ADAM C POWELL BL/W 148 ST",,  40.823366, -73.938028,,,0,
400275,"ADAM C POWELL BL/W 145 ST",,  40.821387, -73.939471,,,0,
400276,"ADAM C POWELL BL/W 142 ST",,  40.819535, -73.940820,,,0,
400277,"ADAM C POWELL BL/W 140 ST",,  40.818303, -73.941721,,,0,
400278,"ADAM C POWELL BL/W 138 ST",,  40.817028, -73.942661,,,0,
400279,"ADAM C POWELL BL/W 135 ST",,  40.815277, -73.943909,,,0,
400280,"ADAM C POWELL BL/W 132 ST",,  40.813155, -73.945461,,,0,
400281,"ADAM C POWELL BL/W 130 ST",,  40.812037, -73.946257,,,0,
400282,"ADAM C POWELL BL/W 128 ST",,  40.810701, -73.947255,,,0,
400283,"ADAM C POWELL BL/W 125 ST",,  40.809180, -73.948379,,,0,
400284,"ADAM C POWELL BL/W 122 ST",,  40.806837, -73.950097,,,0,
400285,"ADAM C POWELL BL/W 120 ST",,  40.805602, -73.950997,,,0,
400287,"ADAM C POWELL BL/W 116 ST",,  40.803591, -73.952433,,,0,
400288,"ADAM C POWELL BL/W 114 ST",,  40.801714, -73.953836,,,0,
400289,"ADAM C POWELL BL/W 112 ST",,  40.800460, -73.954750,,,0,
400290,"CENTRAL PK N/ADAM C POWELL BL",,  40.799173, -73.954860,,,0,
400292,"CENTRAL PK N/5 AV",,  40.796597, -73.949515,,,0,
400322,"5 AV/W 39 ST",,  40.751310, -73.982589,,,0,
400323,"5 AV/W 35 ST",,  40.749477, -73.983921,,,0,
400324,"5 AV/W 33 ST",,  40.747494, -73.985338,,,0,
400325,"5 AV/W 31 ST",,  40.746263, -73.986268,,,0,
400326,"5 AV/W 29 ST",,  40.745072, -73.987134,,,0,
400327,"5 AV/W 26 ST",,  40.743132, -73.988487,,,0,
400329,"5 AV/W 23 ST",,  40.741240, -73.990062,,,0,
400330,"5 AV/W 20 ST",,  40.739407, -73.991260,,,0,
400331,"5 AV/W 17 ST",,  40.737670, -73.992523,,,0,
400333,"5 AV/W 12 ST",,  40.734469, -73.994847,,,0,
400334,"5 AV/W 10 ST",,  40.733223, -73.995749,,,0,
400335,"E 8 ST/5 AV",,  40.731996, -73.995926,,,0,
400336,"E 8 ST/UNIVERSITY PL",,  40.731417, -73.994502,,,0,
400337,"E 8 ST/MERCER ST",,  40.730576, -73.992590,,,0,
400352,"MADISON AV/E 30 ST",,  40.745510, -73.984493,,,0,
400353,"32 ST/MADISON AV",,  40.746555, -73.984226,,,0,
400354,"MADISON AV/E 34 ST",,  40.748328, -73.982437,,,0,
400358,"MADISON AV/E 45 ST",,  40.755233, -73.977403,,,0,
400360,"MADISON AV/E 49 ST",,  40.757755, -73.975576,,,0,
400361,"MADISON AV/E 52 ST",,  40.759636, -73.974182,,,0,
400362,"MADISON AV/E 55  ST",,  40.761140, -73.973144,,,0,
400363,"MADISON AV/E 57 ST",,  40.762858, -73.971838,,,0,
400364,"MADISON AV/E 60  ST",,  40.764673, -73.970473,,,0,
400390,"CATHEDRAL PY/FRED DOUGLASS BL",,  40.800780, -73.958486,,,0,
400394,"MANHATTAN AV/W 116 ST",,  40.804877, -73.956842,,,0,
400395,"MANHATTAN AV/W 119 ST",,  40.807171, -73.955168,,,0,
400396,"MANHATTAN AV/W 121 ST",,  40.808447, -73.954236,,,0,
400398,"ST NICHOLAS AV/W 127 ST",,  40.812206, -73.951155,,,0,
400399,"ST NICHOLAS AV/W 130 ST",,  40.814014, -73.949575,,,0,
400400,"ST NICHOLAS AV/W 133 ST",,  40.815562, -73.948647,,,0,
400401,"ST NICHOLAS AV/W 135 ST",,  40.817280, -73.947885,,,0,
400403,"ST NICHOLAS AV/W 139 ST",,  40.820150, -73.946481,,,0,
400404,"ST NICHOLAS AV/W 141 ST",,  40.821124, -73.946034,,,0,
400405,"ST NICHOLAS AV/W 144 ST",,  40.823278, -73.945037,,,0,
400406,"ST NICHOLAS AV/W 145 ST",,  40.824338, -73.944408,,,0,
400408,"ST NICHOLAS AV/W 151 ST",,  40.828325, -73.942272,,,0,
400409,"ST NICHOLAS AV/W 153 ST",,  40.829645, -73.941744,,,0,
400414,"ST NICHOLAS AV/W 163 ST",,  40.837027, -73.940079,,,0,
400418,"ST NICHOLAS AV/W 170 ST",,  40.842529, -73.938555,,,0,
400419,"ST NICHOLAS AV/W 173 ST",,  40.844406, -73.937188,,,0,
400422,"ST NICHOLAS AV/W 179 ST",,  40.848225, -73.934397,,,0,
400423,"ST NICHOLAS AV/W 181 ST",,  40.849572, -73.933416,,,0,
400426,"ST NICHOLAS AV/W 187 ST",,  40.853358, -73.930644,,,0,
400448,"ST NICHOLAS AV/W 192 ST",,  40.856143, -73.928818,,,0,
400449,"ST NICHOLAS AV/W 190 ST",,  40.854494, -73.930039,,,0,
400452,"ST NICHOLAS AV/W 184 ST",,  40.850790, -73.932783,,,0,
400453,"ST NICHOLAS AV/W 181 ST",,  40.849015, -73.934086,,,0,
400454,"ST NICHOLAS AV/W 178 ST",,  40.847482, -73.935168,,,0,
400457,"ST NICHOLAS AV/W 172 ST",,  40.843215, -73.938316,,,0,
400461,"ST NICHOLAS AV/W 164 ST",,  40.837543, -73.940115,,,0,
400462,"ST NICHOLAS AV/W 162 ST",,  40.836290, -73.940039,,,0,
400466,"ST NICHOLAS AV/W 152 ST",,  40.828860, -73.942257,,,0,
400467,"ST NICHOLAS AV/W 150 ST",,  40.827466, -73.942831,,,0,
400468,"ST NICHOLAS AV/W 148 ST",,  40.825710, -73.943669,,,0,
400469,"ST NICHOLAS AV/W 145 ST",,  40.823764, -73.945033,,,0,
400470,"ST NICHOLAS AV/W 142 ST",,  40.822296, -73.945724,,,0,
400471,"ST NICHOLAS AV/W 141 ST",,  40.821042, -73.946307,,,0,
400472,"ST NICHOLAS AV/W 138 ST",,  40.818937, -73.947284,,,0,
400473,"ST NICHOLAS AV/W 135 ST",,  40.817178, -73.948099,,,0,
400474,"ST NICHOLAS AV/W 133 ST",,  40.815370, -73.948945,,,0,
400475,"ST NICHOLAS AV/W 130 ST",,  40.813469, -73.950237,,,0,
400476,"ST NICHOLAS AV/W 128 ST",,  40.812807, -73.950848,,,0,
400477,"ST NICHOLAS AV/W 125 ST",,  40.810492, -73.952926,,,0,
400479,"MANHATTAN AV/W 122 ST",,  40.808628, -73.954290,,,0,
400482,"MANHATTAN AV/W 116 ST",,  40.804751, -73.957121,,,0,
400483,"MANHATTAN AV/W 114 ST",,  40.803829, -73.957789,,,0,
400484,"MANHATTAN AV/W 112 ST",,  40.802216, -73.958968,,,0,
400485,"CATHEDRAL PKY/MANHATTAN AV",,  40.801047, -73.959575,,,0,
400486,"110 ST/CENTRAL PK W",,  40.800357, -73.957727,,,0,
400512,"5 AV/W 59 ST",,  40.764429, -73.972966,,,0,
400514,"5 AV/W 52 ST",,  40.759924, -73.976306,,,0,
400515,"5 AV/W 49 ST",,  40.758031, -73.977678,,,0,
400516,"5 AV/W 46 ST",,  40.756156, -73.979047,,,0,
400518,"5 AV/W 41 ST",,  40.753191, -73.981154,,,0,
400519,"5 AV/W 38 ST",,  40.750927, -73.982808,,,0,
400561,"MADISON AV/E 42 ST",,  40.753337, -73.978759,,,0,
400595,"CATHEDRAL PY/MANHATTAN AV",,  40.801417, -73.959954,,,0,
400596,"CATHEDRAL PY/MORNINGSIDE DR",,  40.802016, -73.961395,,,0,
400597,"CATHEDRAL PY/AMSTERDAM AV",,  40.803219, -73.964208,,,0,
400598,"CATHEDRAL PY/BROADWAY",,  40.804142, -73.966436,,,0,
400599,"RIVERSIDE DR/W 112 ST",,  40.806297, -73.967664,,,0,
400602,"RIVERSIDE DR/W 119 ST",,  40.810907, -73.964175,,,0,
400609,"BROADWAY/W 137 ST",,  40.821240, -73.954014,,,0,
400610,"BROADWAY/W 139 ST",,  40.822815, -73.952874,,,0,
400611,"BROADWAY/W 141 ST",,  40.824080, -73.951948,,,0,
400612,"BROADWAY/W 143 ST",,  40.825312, -73.951051,,,0,
400613,"BROADWAY/W 145 ST",,  40.826791, -73.949970,,,0,
400614,"BROADWAY/W 147 ST",,  40.827916, -73.949145,,,0,
400615,"BROADWAY/W 149 ST",,  40.829167, -73.948237,,,0,
400616,"BROADWAY/W 151 ST",,  40.830413, -73.947322,,,0,
400617,"BROADWAY/W 153 ST",,  40.831697, -73.946385,,,0,
400618,"BROADWAY/W 155 ST",,  40.832992, -73.945441,,,0,
400619,"BROADWAY/W 157 ST",,  40.834257, -73.944519,,,0,
400620,"BROADWAY/W 159 ST",,  40.835516, -73.943600,,,0,
400621,"BROADWAY/W 161 ST",,  40.836740, -73.942702,,,0,
400622,"BROADWAY/W 163 ST",,  40.838005, -73.941772,,,0,
400623,"BROADWAY/W 165 ST",,  40.839363, -73.940785,,,0,
400624,"BROADWAY/W 168 ST",,  40.840308, -73.940110,,,0,
400626,"FT WASHINGTON AV/W 171 ST",,  40.844315, -73.940871,,,0,
400627,"FT WASHINGTON AV/W 173 ST",,  40.845700, -73.940298,,,0,
400628,"FT WASHINGTON AV/W 175 ST",,  40.846825, -73.939845,,,0,
400629,"FT WASHINGTON AV/W 177 ST",,  40.847906, -73.939407,,,0,
400630,"FT WASHINGTON AV/W 179 ST",,  40.849229, -73.938932,,,0,
400631,"FT WASHINGTON AV/W 181 ST",,  40.851202, -73.938078,,,0,
400632,"FT WASHINGTON AV/W 183 ST",,  40.852396, -73.937654,,,0,
400633,"FT WASHINGTON AV/W 185 ST",,  40.853639, -73.937266,,,0,
400634,"FT WASHINGTON AV/W 187 ST",,  40.855070, -73.936723,,,0,
400635,"FT WASHINGTON AV/W 190 ST",,  40.857335, -73.935335,,,0,
400636,"FT WASHINGTON AV/CABRINI BL",,  40.858996, -73.934186,,,0,
400639,"FT WASHINGTON AV/CABRINI BL",,  40.859209, -73.934278,,,0,
400640,"FT WASHINGTON AV/W 190 ST",,  40.856809, -73.935921,,,0,
400641,"FT WASHINGTON AV/W 187 ST",,  40.854822, -73.937062,,,0,
400642,"FT WASHINGTON AV/W 185 ST",,  40.853134, -73.937591,,,0,
400643,"FT WASHINGTON AV/W 183 ST",,  40.851888, -73.937987,,,0,
400644,"FT WASHINGTON AV/W 181 ST",,  40.850634, -73.938487,,,0,
400645,"FT WASHINGTON AV/W 179 ST",,  40.849216, -73.939025,,,0,
400646,"FT WASHINGTON AV/W 177 ST",,  40.847583, -73.939718,,,0,
400647,"FT WASHINGTON AV/W 174 ST",,  40.845854, -73.940410,,,0,
400648,"FT WASHINGTON AV/W 172 ST",,  40.844435, -73.940982,,,0,
400649,"FT WASHINGTON AV/W 170 ST",,  40.843204, -73.941912,,,0,
400655,"BROADWAY/W 157 ST",,  40.834229, -73.944922,,,0,
400656,"BROADWAY/W 155 ST",,  40.832512, -73.946226,,,0,
400657,"BROADWAY/W 152 ST",,  40.830668, -73.947579,,,0,
400658,"BROADWAY/W 150 ST",,  40.829398, -73.948497,,,0,
400659,"BROADWAY/W 147 ST",,  40.827513, -73.949879,,,0,
400661,"BROADWAY/W 142 ST",,  40.824316, -73.952208,,,0,
400662,"BROADWAY/W 140 ST",,  40.823073, -73.953123,,,0,
400663,"BROADWAY/W 138 ST",,  40.821841, -73.954028,,,0,
400676,"CATHEDRAL PY/BROADWAY",,  40.803862, -73.966205,,,0,
400677,"CATHEDRAL PKY/AMSTERDAM AV",,  40.802722, -73.963511,,,0,
400678,"CATHEDRAL PY/COLUMBUS AV",,  40.801508, -73.960792,,,0,
400716,"W 34 ST/BROADWAY",,  40.749982, -73.988050,,,0,
400719,"W HOUSTON ST/SULLIVAN ST",,  40.727752, -74.001516,,,0,
400722,"AV OF THE AMERICAS/W 3 ST",,  40.730879, -74.001389,,,0,
400723,"AV OF THE AMERICAS/WAVERLY PL",,  40.733006, -73.999838,,,0,
400724,"AV OF THE AMERICAS/W 10 ST",,  40.734865, -73.998466,,,0,
400725,"AV OF THE AMERICAS/W 12 ST",,  40.736155, -73.997539,,,0,
400726,"AV OF THE AMERICAS/W 15 ST",,  40.738103, -73.996210,,,0,
400731,"AV OF THE AMERICAS/W 27 ST",,  40.745283, -73.990927,,,0,
400732,"AV OF THE AMERICAS/W 29 ST",,  40.746542, -73.990097,,,0,
400744,"W 57 ST/7 AV",,  40.765736, -73.980402,,,0,
400745,"W 57 ST/BROADWAY",,  40.766518, -73.982248,,,0,
400747,"BROADWAY/W 63 ST",,  40.771860, -73.981984,,,0,
400750,"BROADWAY/W 69 ST",,  40.776682, -73.981922,,,0,
400751,"W 72 ST/BROADWAY",,  40.779127, -73.982766,,,0,
400752,"W 72 ST/WEST END AV",,  40.780124, -73.984968,,,0,
400755,"RIVERSIDE DR/W 77 ST",,  40.783989, -73.983566,,,0,
400756,"RIVERSIDE DR/W 79 ST",,  40.785215, -73.982281,,,0,
400759,"RIVERSIDE DR/W 85 ST",,  40.789293, -73.980760,,,0,
400760,"RIVERSIDE DR/W 87 ST",,  40.790737, -73.979671,,,0,
400761,"RIVERSIDE DR/W 89 ST",,  40.791852, -73.978234,,,0,
400762,"RIVERSIDE DR/W 91 ST",,  40.792603, -73.977074,,,0,
400764,"RIVERSIDE DR/W 97 ST",,  40.796490, -73.974307,,,0,
400768,"RIVERSIDE DR/W 106 ST",,  40.802241, -73.970219,,,0,
400769,"RIVERSIDE DR/W 108 ST",,  40.803674, -73.969149,,,0,
400771,"RIVERSIDE DR/W 114 ST",,  40.807864, -73.966626,,,0,
400772,"RIVERSIDE DR/W 116 ST",,  40.809122, -73.965499,,,0,
400796,"BROADWAY/W 171 ST",,  40.843509, -73.939006,,,0,
400798,"BROADWAY/W 175 ST",,  40.846487, -73.938292,,,0,
400799,"W 178 ST/BROADWAY",,  40.848030, -73.936989,,,0,
400808,"BROADWAY/W 178 ST",,  40.848425, -73.937697,,,0,
400809,"BROADWAY/W 176 ST",,  40.846657, -73.938432,,,0,
400810,"BROADWAY/W 174 ST",,  40.845164, -73.938824,,,0,
400811,"BROADWAY/W 172 ST",,  40.843646, -73.939171,,,0,
400812,"BROADWAY/W 170 ST",,  40.842568, -73.939311,,,0,
400814,"BROADWAY/W 164 ST",,  40.838197, -73.942072,,,0,
400815,"BROADWAY/W 162 ST",,  40.836998, -73.942951,,,0,
400816,"BROADWAY/W 160 ST",,  40.835736, -73.943874,,,0,
400832,"RIVERSIDE DR/W 119 ST",,  40.810963, -73.964375,,,0,
400834,"RIVERSIDE DR/W 116 ST",,  40.808776, -73.966007,,,0,
400835,"RIVERSIDE DR/W 114 ST",,  40.807536, -73.967154,,,0,
400836,"RIVERSIDE DR/W 112 ST",,  40.806236, -73.967951,,,0,
400837,"RIVERSIDE DR/W 108 ST",,  40.803581, -73.969521,,,0,
400838,"RIVERSIDE DR/W 106 ST",,  40.802324, -73.970472,,,0,
400840,"RIVERSIDE DR/W 100 ST",,  40.798412, -73.973916,,,0,
400841,"RIVERSIDE DR/W 97 ST",,  40.796511, -73.974404,,,0,
400843,"RIVERSIDE DR/W 91 ST",,  40.792862, -73.977067,,,0,
400846,"RIVERSIDE DR/W 86 ST",,  40.789741, -73.980600,,,0,
400847,"RIVERSIDE DR/W 84 ST",,  40.788278, -73.981178,,,0,
400848,"RIVERSIDE DR/W 82 ST",,  40.786689, -73.981341,,,0,
400849,"RIVERSIDE DR/W 80 ST",,  40.785449, -73.982266,,,0,
400851,"RIVERSIDE DR/W 76 ST",,  40.783055, -73.984578,,,0,
400852,"RIVERSIDE DR/W 73 ST",,  40.781412, -73.985318,,,0,
400853,"W 72 ST/WEST END AV",,  40.779553, -73.984116,,,0,
400854,"W 72 ST/BROADWAY",,  40.778765, -73.982253,,,0,
400856,"BROADWAY/W 68 ST",,  40.775414, -73.982417,,,0,
400858,"BROADWAY/W 64 ST",,  40.771797, -73.982364,,,0,
400860,"BROADWAY/W 61 ST",,  40.769470, -73.982326,,,0,
400861,"COLUMBUS CIR/8 AV",,  40.767676, -73.982261,,,0,
400890,"W HOUSTON ST/GREENE ST",,  40.726230, -73.998164,,,0,
400903,"STATE ST/BRIDGE ST",,  40.704209, -74.014192,,,0,
400910,"CHURCH ST/CHAMBERS ST",,  40.714954, -74.007835,,,0,
400913,"AV OF THE AMERICAS/WHITE ST",,  40.719318, -74.005054,,,0,
400915,"6 AV/THOMPSON ST",,  40.722291, -74.005193,,,0,
400916,"AV OF THE AMERICAS/BROOME ST",,  40.724232, -74.004455,,,0,
400917,"6 AV/SPRING ST",,  40.725730, -74.003870,,,0,
400919,"6 AV/W HOUSTON ST",,  40.728700, -74.002540,,,0,
400929,"AV OF THE AMERICAS/W 23 ST",,  40.743027, -73.992644,,,0,
400933,"AV OF THE AMERICAS/W 34 ST",,  40.749860, -73.987669,,,0,
400936,"AV OF THE AMERICAS/W 42 ST",,  40.755109, -73.983786,,,0,
400938,"AV OF THE AMERICAS/W 47 ST",,  40.758290, -73.981468,,,0,
400940,"AV OF THE AMERICAS/W 51 ST",,  40.760748, -73.979670,,,0,
400941,"AV OF THE AMERICAS/W 54 ST",,  40.762617, -73.978301,,,0,
400943,"CENTRAL PK S/6 AV",,  40.766128, -73.977019,,,0,
400948,"7 AV/WEST 58 ST",,  40.766137, -73.979694,,,0,
400950,"7 AV/W 54 ST",,  40.763718, -73.981405,,,0,
400951,"7 AV/W 53 ST",,  40.762793, -73.982131,,,0,
400988,"BROADWAY/THAMES ST",,  40.708643, -74.011062,,,0,
401014,"CENTRAL PK S/7 AV",,  40.767201, -73.979581,,,0,
401015,"CENTRAL PK S/COLUMBUS CI",,  40.767838, -73.981242,,,0,
401016,"BROADWAY/W 61 ST",,  40.769517, -73.981883,,,0,
401021,"AMSTERDAM AV/W 72 ST",,  40.778924, -73.981271,,,0,
401022,"AMSTERDAM AV/W 75 ST",,  40.780222, -73.980314,,,0,
401023,"AMSTERDAM AV/W 77 ST",,  40.782056, -73.978988,,,0,
401024,"AMSTERDAM AV/W 79 ST",,  40.783280, -73.978085,,,0,
401025,"AMSTERDAM AV/W 81 ST",,  40.784688, -73.977070,,,0,
401026,"AMSTERDAM AV/W 83 ST",,  40.785955, -73.976152,,,0,
401027,"AMSTERDAM AV/W 86 ST",,  40.787953, -73.974696,,,0,
401029,"AMSTERDAM AV/W 91 ST",,  40.791085, -73.972405,,,0,
401030,"AMSTERDAM AV/W 93 ST",,  40.792344, -73.971480,,,0,
401031,"AMSTERDAM AV/W 96 ST",,  40.794323, -73.970039,,,0,
401032,"AMSTERDAM AV/W 98 ST",,  40.795601, -73.969106,,,0,
401033,"AMSTERDAM AV/W 100 ST",,  40.796869, -73.968181,,,0,
401034,"AMSTERDAM AV/W 102 ST",,  40.798005, -73.967398,,,0,
401035,"AMSTERDAM AV/W 104 ST",,  40.799391, -73.966341,,,0,
401036,"W 106 ST/AMSTERDAM AV",,  40.800184, -73.965359,,,0,
401037,"W 106 ST/COLUMBUS AV",,  40.798989, -73.962527,,,0,
401038,"MANHATTAN AV/W 106 ST",,  40.798937, -73.961180,,,0,
401039,"MANHATTAN AV/W 109 ST",,  40.800471, -73.960056,,,0,
401040,"MANHATTAN AV/CATHEDRAL PKY",,  40.801480, -73.959315,,,0,
401044,"W 116 ST/FRED DOUGLASS BL",,  40.804229, -73.955203,,,0,
401045,"W 116 ST/ADAM C POWELL BL",,  40.802908, -73.952032,,,0,
401047,"MALCOLM X BL/W 119 ST",,  40.804171, -73.947943,,,0,
401051,"MALCOLM X BL/W 127 ST",,  40.809382, -73.944138,,,0,
401052,"MALCOLM X BL/W 129 ST",,  40.810635, -73.943223,,,0,
401055,"MALCOLM X BL/W 135 ST",,  40.813931, -73.940833,,,0,
401056,"MALCOLM X BL/W 137 ST",,  40.815750, -73.939483,,,0,
401069,"MALCOLM X BL/W 135 ST",,  40.813711, -73.941320,,,0,
401070,"MALCOLM X BL/W 132 ST",,  40.811953, -73.942601,,,0,
401074,"MALCOLM X BL/W 122 ST",,  40.805595, -73.947252,,,0,
401078,"W 116 ST/ST NICHOLAS AV",,  40.803561, -73.953097,,,0,
401079,"W 116 ST/FRED DOUGLASS BL",,  40.804421, -73.955141,,,0,
401084,"MANHATTAN AV/W 108 ST",,  40.799754, -73.960764,,,0,
401085,"MANHATTAN AV/W 106 ST",,  40.798802, -73.961459,,,0,
401086,"COLUMBUS AV/W 106 ST",,  40.798915, -73.963235,,,0,
401087,"COLUMBUS AV/W 102 ST",,  40.797415, -73.964320,,,0,
401088,"COLUMBUS AV/W 100 ST",,  40.795065, -73.966047,,,0,
401090,"COLUMBUS AV/W 94 ST",,  40.791289, -73.968790,,,0,
401091,"COLUMBUS AV/W 92 ST",,  40.790024, -73.969719,,,0,
401092,"COLUMBUS AV/W 89 ST",,  40.788158, -73.971085,,,0,
401093,"COLUMBUS AV/W 86 ST",,  40.786185, -73.972530,,,0,
401094,"COLUMBUS AV/W 84 ST",,  40.784895, -73.973466,,,0,
401096,"COLUMBUS AV/W 78 ST",,  40.780996, -73.976309,,,0,
401099,"COLUMBUS AV/W 72 ST",,  40.777085, -73.979160,,,0,
401100,"COLUMBUS AV/W 69 ST",,  40.775251, -73.980548,,,0,
401102,"COLUMBUS AV/W 63 ST",,  40.771841, -73.983006,,,0,
401139,"GRAND ST/CLINTON ST",,  40.715758, -73.986415,,,0,
401140,"GRAND ST/PITT ST",,  40.715164, -73.984467,,,0,
401141,"GRAND ST/EAST BROADWAY",,  40.714594, -73.982301,,,0,
401142,"GRAND ST/JACKSON ST",,  40.714080, -73.980611,,,0,
401147,"GRAND ST/COLUMBIA ST",,  40.714486, -73.981455,,,0,
401149,"GRAND ST/PITT ST",,  40.715328, -73.984449,,,0,
401150,"GRAND ST/CLINTON ST",,  40.716095, -73.986873,,,0,
401168,"E BROADWAY/FORSYTH ST",,  40.713675, -73.994096,,,0,
401169,"E BROADWAY/PIKE ST",,  40.713808, -73.992650,,,0,
401182,"E 14 ST/AV B",,  40.729501, -73.978117,,,0,
401183,"E 14 ST/AV A",,  40.730479, -73.980450,,,0,
401191,"E 14 ST/3 AV",,  40.733008, -73.986729,,,0,
401192,"E 14 ST/2 AV",,  40.732083, -73.984535,,,0,
401193,"E 14 ST/1 AV",,  40.731086, -73.982172,,,0,
401194,"E 14 ST/AV A",,  40.730404, -73.980445,,,0,
401195,"E 14 ST/AV B",,  40.729420, -73.978171,,,0,
401202,"ESSEX ST/E HOUSTON ST",,  40.721859, -73.986612,,,0,
401206,"ESSEX ST/GRAND ST",,  40.716867, -73.989185,,,0,
401208,"E BROADWAY/PIKE ST",,  40.713947, -73.992385,,,0,
401209,"E BROADWAY/MARKET ST",,  40.713730, -73.995011,,,0,
401210,"E BROADWAY/CATHERINE ST",,  40.713510, -73.997626,,,0,
401220,"HUDSON ST/PERRY ST",,  40.735435, -74.005921,,,0,
401223,"8 AV/W 14 ST",,  40.739885, -74.002263,,,0,
401224,"8 AV/W 17 ST",,  40.741899, -74.000808,,,0,
401225,"8 AV/W 20 ST",,  40.743642, -73.999538,,,0,
401226,"8 AV/W 23 ST",,  40.745586, -73.998123,,,0,
401227,"8 AV/W 25 ST",,  40.746845, -73.997203,,,0,
401229,"8 AV/W 28 ST",,  40.748684, -73.995864,,,0,
401231,"8 AV/W 34 ST",,  40.752329, -73.993258,,,0,
401232,"8 AV/W 37 ST",,  40.753960, -73.992034,,,0,
401239,"8 AV/W 52 ST",,  40.763788, -73.984867,,,0,
401245,"CENTRAL PK W/W 67 ST",,  40.772641, -73.978424,,,0,
401248,"CENTRAL PK W/W 72 ST",,  40.776516, -73.975596,,,0,
401250,"CENTRAL PK W/W 77 ST",,  40.779818, -73.973190,,,0,
401252,"CENTRAL PK W/W 82 ST",,  40.782564, -73.971263,,,0,
401253,"CENTRAL PK W/W 84 ST",,  40.784035, -73.970126,,,0,
401254,"CENTRAL PK W/W 87 ST",,  40.785850, -73.968870,,,0,
401255,"CENTRAL PK W/W 88 ST",,  40.786848, -73.968059,,,0,
401256,"CENTRAL PK W/W 90 ST",,  40.788071, -73.967205,,,0,
401257,"CENTRAL PK W/W 92 ST",,  40.789324, -73.966253,,,0,
401258,"CENTRAL PK W/W 94 ST",,  40.790539, -73.965364,,,0,
401259,"CENTRAL PK W/W 97 ST",,  40.792222, -73.964215,,,0,
401261,"CENTRAL PK W/W 100 ST",,  40.794507, -73.962472,,,0,
401262,"CENTRAL PK W/W 102 ST",,  40.795750, -73.961561,,,0,
401263,"CENTRAL PK W/W 104 ST",,  40.797034, -73.960632,,,0,
401264,"CENTRAL PK W/W 106 ST",,  40.798297, -73.959714,,,0,
401265,"CENTRAL PK W/W 108 ST",,  40.799706, -73.958746,,,0,
401267,"FRED DOUGLASS BL/W 111 ST",,  40.801444, -73.957433,,,0,
401268,"FRED DOUGLASS BL/W 113 ST",,  40.802747, -73.956482,,,0,
401269,"FRED DOUGLASS BL/W 116 ST",,  40.804742, -73.955025,,,0,
401270,"FRED DOUGLASS BL/W 119 ST",,  40.806378, -73.953887,,,0,
401271,"FRED DOUGLASS BL/W 121 ST",,  40.807445, -73.953051,,,0,
401272,"FRED DOUGLASS BL/W 123 ST",,  40.809069, -73.951847,,,0,
401274,"FRED DOUGLASS BL/W 127 ST",,  40.811747, -73.949887,,,0,
401275,"FRED DOUGLASS BL/W 129 ST",,  40.812894, -73.949048,,,0,
401276,"FRED DOUGLASS BL/W 131 ST",,  40.814140, -73.948137,,,0,
401277,"FRED DOUGLASS BL/W 133 ST",,  40.815432, -73.947190,,,0,
401281,"FRED DOUGLASS BL/W 141 ST",,  40.820541, -73.943464,,,0,
401282,"FRED DOUGLASS BL/W 143 ST",,  40.821759, -73.942574,,,0,
401286,"FRED DOUGLASS BL/W 153 ST",,  40.828130, -73.937918,,,0,
401287,"FRED DOUGLASS BL/W 155 ST",,  40.829277, -73.937054,,,0,
401288,"FRED DOUGLASS BL/W 158 ST",,  40.831209, -73.935693,,,0,
401294,"W 14 ST/7 AV",,  40.738287, -73.999271,,,0,
401301,"HUDSON ST/CHARLTON ST",,  40.727185, -74.007248,,,0,
401302,"HUDSON ST/W HOUSTON ST",,  40.728924, -74.007040,,,0,
401305,"FRED DOUGLASS BL/W 155 ST",,  40.829091, -73.937451,,,0,
401306,"FRED DOUGLASS BL/W 154 ST",,  40.828306, -73.938048,,,0,
401307,"FRED DOUGLASS BL/W 152 ST",,  40.827019, -73.938993,,,0,
401308,"FRED DOUGLASS BL/W 150 ST",,  40.825949, -73.939723,,,0,
401310,"FRED DOUGLASS BL/W 145 ST",,  40.822522, -73.942285,,,0,
401311,"FRED DOUGLASS BL/W 142 ST",,  40.820659, -73.943641,,,0,
401312,"FRED DOUGLASS BL/W 140 ST",,  40.819419, -73.944553,,,0,
401313,"FRED DOUGLASS BL/W 138 ST",,  40.818185, -73.945450,,,0,
401314,"FRED DOUGLASS BL/W 135 ST",,  40.816206, -73.946889,,,0,
401315,"FRED DOUGLASS BL/W 133 ST",,  40.814919, -73.947829,,,0,
401317,"FRED DOUGLASS BL/W 129 ST",,  40.812828, -73.949339,,,0,
401324,"FRED DOUGLASS BL/W 112 ST",,  40.801644, -73.957505,,,0,
401325,"FRED DOUGLASS BL/CATHEDRAL PKY",,  40.800938, -73.957992,,,0,
401326,"CENTRAL PK W/W 108 ST",,  40.799136, -73.959367,,,0,
401327,"CENTRAL PK W/W 106 ST",,  40.798131, -73.960068,,,0,
401328,"CENTRAL PK W/W 104 ST",,  40.796510, -73.961272,,,0,
401329,"CENTRAL PK W/W 102 ST",,  40.795276, -73.962190,,,0,
401330,"CENTRAL PK W/W 100 ST",,  40.793950, -73.963152,,,0,
401331,"CENTRAL PK W/W 97 ST",,  40.792268, -73.964384,,,0,
401333,"CENTRAL PK W/W 94 ST",,  40.790108, -73.965963,,,0,
401334,"CENTRAL PK W/W 92 ST",,  40.788893, -73.966852,,,0,
401335,"CENTRAL PK W/W 90 ST",,  40.787619, -73.967770,,,0,
401336,"CENTRAL PK W/W 88 ST",,  40.786527, -73.968515,,,0,
401337,"CENTRAL PK W/W 86 ST",,  40.785040, -73.969690,,,0,
401338,"CENTRAL PK W/W 84 ST",,  40.783750, -73.970599,,,0,
401339,"CENTRAL PK W/W 81 ST",,  40.781964, -73.971889,,,0,
401341,"CENTRAL PK W/W 77 ST",,  40.779398, -73.973786,,,0,
401342,"CENTRAL PK W/W 74 ST",,  40.777466, -73.975180,,,0,
401343,"CENTRAL PK W/W 72 ST",,  40.776132, -73.976188,,,0,
401344,"CENTRAL PK W/W 70 ST",,  40.774837, -73.977160,,,0,
401345,"CENTRAL PK W/W 68 ST",,  40.773569, -73.978045,,,0,
401348,"BROADWAY/W 63 ST",,  40.770883, -73.982338,,,0,
401359,"7 AV/W 37 ST",,  40.752568, -73.989494,,,0,
401360,"7 AV/W 34 ST",,  40.750627, -73.991020,,,0,
401361,"7 AV/W 31 ST",,  40.748860, -73.992309,,,0,
401363,"7 AV/W 28 ST",,  40.747035, -73.993637,,,0,
401364,"7 AV/W 25 ST",,  40.745177, -73.994994,,,0,
401366,"7 AV/W 20 ST",,  40.742028, -73.997286,,,0,
401371,"7 AV S/WAVERLY PL",,  40.735235, -74.001999,,,0,
401372,"7 AV S/W 10 ST",,  40.734110, -74.002648,,,0,
401373,"7 AV S/BARROW ST",,  40.732573, -74.003525,,,0,
401374,"7 AV S/BEDFORD ST",,  40.730467, -74.004730,,,0,
401375,"7 AV S/CLARKSON ST",,  40.729333, -74.005257,,,0,
401377,"VARICK ST/CHARLTON ST",,  40.726861, -74.005711,,,0,
401379,"VARICK ST/WATTS ST",,  40.723663, -74.006267,,,0,
401380,"VARICK ST/NORTH MOORE ST",,  40.719658, -74.006955,,,0,
401381,"W BROADWAY/DUANE ST",,  40.716367, -74.008661,,,0,
401386,"HUDSON ST/W 13 ST",,  40.740187, -74.005344,,,0,
401387,"HUDSON ST/HORATIO ST",,  40.738853, -74.005590,,,0,
401388,"HUDSON ST/W 12 ST",,  40.737670, -74.005766,,,0,
401393,"BETHUNE ST/GREENWICH ST",,  40.736989, -74.006358,,,0,
401398,"10 AV/W 21 ST",,  40.746615, -74.004825,,,0,
401400,"10 AV/W 25 ST",,  40.749222, -74.002905,,,0,
401401,"10 AV/W 27 ST",,  40.750041, -74.002353,,,0,
401402,"10 AV/W 30 ST",,  40.752373, -74.000606,,,0,
401407,"10 AV/W 42 ST",,  40.759847, -73.995181,,,0,
401408,"10 AV/W 45 ST",,  40.761749, -73.993798,,,0,
401409,"10 AV/W 47 ST",,  40.763025, -73.992874,,,0,
401410,"10 AV/W 49 ST",,  40.764272, -73.991957,,,0,
401411,"10 AV/W 53 ST",,  40.766418, -73.990397,,,0,
401412,"10 AV/W 55 ST",,  40.768029, -73.989275,,,0,
401413,"10 AV/W 57 ST",,  40.768926, -73.988563,,,0,
401414,"AMSTERDAM AV/W 59 ST",,  40.770631, -73.987328,,,0,
401416,"AMSTERDAM AV/W 62 ST",,  40.772642, -73.985836,,,0,
401417,"AMSTERDAM AV/W 65 ST",,  40.774341, -73.984619,,,0,
401435,"AMSTERDAM AV/W 106 ST",,  40.800697, -73.965394,,,0,
401436,"AMSTERDAM AV/W 109 ST",,  40.802566, -73.964024,,,0,
401438,"AMSTERDAM AV/W 112 ST",,  40.804556, -73.962579,,,0,
401440,"AMSTERDAM AV/W 116 ST",,  40.807099, -73.960724,,,0,
401441,"AMSTERDAM AV/W 118 ST",,  40.808353, -73.959809,,,0,
401442,"AMSTERDAM AV/W 120 ST",,  40.809585, -73.958906,,,0,
401443,"AMSTERDAM AV/W 123 ST",,  40.812268, -73.956884,,,0,
401444,"AMSTERDAM AV/W 125 ST",,  40.813745, -73.955868,,,0,
401445,"AMSTERDAM AV/W 126 ST",,  40.814340, -73.955492,,,0,
401446,"AMSTERDAM AV/W 129 ST",,  40.814996, -73.955014,,,0,
401447,"AMSTERDAM AV/W 131 ST",,  40.816685, -73.953761,,,0,
401448,"AMSTERDAM AV/W 133 ST",,  40.817850, -73.952922,,,0,
401453,"HUDSON ST/CHRISTOPHER ST",,  40.733347, -74.006260,,,0,
401458,"AMSTERDAM AV/W 131 ST",,  40.816009, -73.954424,,,0,
401459,"AMSTERDAM AV/W 129 ST",,  40.814859, -73.955250,,,0,
401462,"AMSTERDAM AV/W 123 ST",,  40.811034, -73.958114,,,0,
401463,"AMSTERDAM AV/W 120 ST",,  40.809048, -73.959563,,,0,
401464,"AMSTERDAM AV/W 118 ST",,  40.807818, -73.960464,,,0,
401465,"AMSTERDAM AV/W 116 ST",,  40.806523, -73.961403,,,0,
401466,"AMSTERDAM AV/W 114 ST",,  40.805286, -73.962307,,,0,
401467,"AMSTERDAM AV/W 112 ST",,  40.804034, -73.963215,,,0,
401469,"COLUMBUS AV/CATHEDRAL PY",,  40.801443, -73.961388,,,0,
401470,"COLUMBUS AV/W 108 ST",,  40.800309, -73.962213,,,0,
401489,"9 AV/W 59 ST",,  40.768953, -73.985086,,,0,
401490,"9 AV/W 57 ST",,  40.767674, -73.986043,,,0,
401491,"9 AV/W 55 ST",,  40.766555, -73.986769,,,0,
401492,"9 AV/W 52 ST",,  40.764526, -73.988336,,,0,
401493,"9 AV/W 50 ST",,  40.763294, -73.989235,,,0,
401495,"9 AV/W 46 ST",,  40.760764, -73.991080,,,0,
401496,"9 AV/W 44 ST",,  40.759839, -73.991720,,,0,
401497,"9 AV/W 42 ST",,  40.758584, -73.992665,,,0,
401500,"9 AV/W 35 ST",,  40.754199, -73.995867,,,0,
401501,"9 AV/W 34 ST",,  40.753153, -73.996625,,,0,
401502,"9 AV/W 30 ST",,  40.750611, -73.998473,,,0,
401503,"9 AV/W 28 ST",,  40.749425, -73.999343,,,0,
401506,"9 AV/W 20 ST",,  40.744433, -74.002977,,,0,
401507,"9 AV/W 18 ST",,  40.743200, -74.003816,,,0,
401528,"WEST ST/CHRISTOPHER ST",,  40.732847, -74.010081,,,0,
401529,"W 10 ST/WASHINGTON ST",,  40.733310, -74.008708,,,0,
401531,"W 10 ST/BLEECKER ST",,  40.734005, -74.004254,,,0,
401532,"W 10 ST/7 AV S",,  40.734228, -74.002587,,,0,
401533,"W 10 ST/WAVERLY PL",,  40.734489, -74.001021,,,0,
401535,"GREENWICH AV/CHRISTOPHER ST",,  40.734143, -73.999729,,,0,
401536,"W 8 ST/AV OF THE AMERICAS",,  40.733369, -73.999159,,,0,
401538,"W 8 ST/5 AV",,  40.732336, -73.996709,,,0,
401542,"ST MARKS PL/3 AV",,  40.729322, -73.989533,,,0,
401543,"ST MARKS PL/2 AV",,  40.728611, -73.987848,,,0,
401544,"ST MARKS PL/1 AV",,  40.727381, -73.984926,,,0,
401545,"ST MARKS PL/AV A",,  40.726720, -73.983353,,,0,
401547,"E 10 ST/AV A",,  40.727645, -73.981877,,,0,
401548,"E 10 ST/AV B",,  40.726672, -73.979590,,,0,
401549,"E 10 ST/AV C",,  40.725667, -73.977220,,,0,
401552,"E 10 ST/AV C",,  40.726046, -73.977844,,,0,
401553,"E 10 ST/AV B",,  40.727049, -73.980214,,,0,
401554,"E 10 ST/AV A",,  40.727828, -73.982068,,,0,
401555,"E 9 ST/AV A",,  40.727464, -73.982999,,,0,
401556,"E 9 ST/1 AV",,  40.728392, -73.985207,,,0,
401557,"E 9 ST/2 AV",,  40.729413, -73.987642,,,0,
401558,"E 9 ST/3 AV",,  40.730094, -73.989262,,,0,
401559,"E 9 ST/4 AV",,  40.730549, -73.990323,,,0,
401561,"E 9 ST/UNIVERSITY PL",,  40.732356, -73.994609,,,0,
401562,"W 9 ST/5 AV",,  40.733089, -73.996367,,,0,
401563,"W 9 ST/AV OF THE AMERICAS",,  40.734156, -73.998910,,,0,
401564,"CHRISTOPHER ST/GREENWICH AV",,  40.734113, -73.999946,,,0,
401565,"CHRISTOPHER ST/WAVERLY PL",,  40.733747, -74.002197,,,0,
401566,"CHRISTOPHER ST/7 AV S",,  40.733577, -74.003341,,,0,
401567,"CHRISTOPHER ST/BLEECKER ST",,  40.733369, -74.004694,,,0,
401568,"CHRISTOPHER ST/HUDSON ST",,  40.733141, -74.006159,,,0,
401569,"CHRISTOPHER ST/GREENWICH ST",,  40.732852, -74.007927,,,0,
401570,"CHRISTOPHER ST/WASHINGTON ST",,  40.732666, -74.009067,,,0,
401575,"W 14 ST/8 AV",,  40.739621, -74.002394,,,0,
401577,"W 14 ST/6 AV",,  40.737093, -73.996431,,,0,
401579,"E 14 ST/UNIVERSITY PL",,  40.735221, -73.991933,,,0,
401587,"E 14 ST/AV C",,  40.728428, -73.975827,,,0,
401589,"AV C/E 12 ST",,  40.726979, -73.976815,,,0,
401591,"E 10 ST/AV D",,  40.724868, -73.975315,,,0,
401595,"AV D/E 6 ST",,  40.722269, -73.977174,,,0,
401596,"AV D/E 4 ST",,  40.721056, -73.978055,,,0,
401598,"E HOUSTON ST/BARUCH DR",,  40.719096, -73.976883,,,0,
401599,"E HOUSTON ST/MANGIN ST",,  40.718835, -73.975614,,,0,
401600,"F. D. R. DRIVE/555 FDR DR",,  40.716750, -73.975842,,,0,
401608,"8 AV/BLEECKER ST",,  40.737379, -74.004929,,,0,
401609,"8 AV/W 4 ST",,  40.738597, -74.003533,,,0,
401610,"AV A/E 11 ST",,  40.728215, -73.982068,,,0,
401612,"AV A/E 5 ST",,  40.724575, -73.984651,,,0,
401624,"COLUMBIA ST/RIVINGTON ST",,  40.717780, -73.979762,,,0,
401625,"AV D/E HOUSTON ST",,  40.720090, -73.978550,,,0,
401626,"AV D/E 5 ST",,  40.722118, -73.977073,,,0,
401630,"AV C/E 12 ST",,  40.727333, -73.976332,,,0,
401633,"E 14 ST/AV C",,  40.728610, -73.975909,,,0,
401657,"AV A/E 5 ST",,  40.725100, -73.984118,,,0,
401659,"AV A/E 11 ST",,  40.728676, -73.981509,,,0,
401660,"AV A/E 14 ST",,  40.729975, -73.980567,,,0,
401664,"WATER ST/BROAD ST",,  40.703036, -74.010834,,,0,
401665,"WATER ST/OLD SLIP",,  40.704274, -74.008490,,,0,
401666,"WATER ST/WALL ST",,  40.705287, -74.007109,,,0,
401669,"PEARL ST/PECK SLIP",,  40.708968, -74.002171,,,0,
401670,"ST JAMES PL/R F WAGNER SR PL",,  40.710594, -74.000752,,,0,
401675,"PIKE ST/DIVISION ST",,  40.714303, -73.992468,,,0,
401679,"ALLEN ST/DELANCEY ST",,  40.719558, -73.989999,,,0,
401681,"ALLEN ST/STANTON ST",,  40.721896, -73.988839,,,0,
401682,"1 AV/E 2 ST",,  40.723561, -73.988177,,,0,
401685,"1 AV/ST MARKS PL",,  40.727823, -73.985061,,,0,
401686,"1 AV/E 11 ST",,  40.729636, -73.983733,,,0,
401687,"1 AV/E 14 ST",,  40.732122, -73.981946,,,0,
401688,"1 AV/E 17 ST",,  40.733155, -73.981188,,,0,
401689,"1 AV/E 20 ST",,  40.735109, -73.979751,,,0,
401690,"1 AV/E 23 ST",,  40.737053, -73.978368,,,0,
401691,"1 AV/E 25 ST",,  40.738501, -73.977296,,,0,
401694,"1 AV/E 31 ST",,  40.741957, -73.974808,,,0,
401696,"1 AV/E 36 ST",,  40.745324, -73.972349,,,0,
401697,"1 AV/E 39 ST",,  40.747191, -73.970988,,,0,
401698,"1 AV/E 42 ST",,  40.749251, -73.969332,,,0,
401699,"1 AV/E 45 ST",,  40.750684, -73.968460,,,0,
401701,"1 AV/MITCHELL PL",,  40.753591, -73.966311,,,0,
401702,"1 AV/E 52 ST",,  40.755395, -73.964983,,,0,
401703,"1 AV/E 55 ST",,  40.757260, -73.963631,,,0,
401704,"1 AV/E 57 ST",,  40.758829, -73.962462,,,0,
401706,"1 AV/E 64 ST",,  40.762984, -73.959485,,,0,
401707,"1 AV/E 67 ST",,  40.764870, -73.958109,,,0,
401708,"1 AV/E 70 ST",,  40.766741, -73.956738,,,0,
401709,"1 AV/E 72 ST",,  40.768087, -73.955742,,,0,
401710,"1 AV/E 75 ST",,  40.769986, -73.954350,,,0,
401711,"1 AV/E 77 ST",,  40.771254, -73.953421,,,0,
401712,"1 AV/E 79 ST",,  40.772633, -73.952403,,,0,
401715,"1 AV/E 86 ST",,  40.777168, -73.949110,,,0,
401716,"1 AV/E 89 ST",,  40.779039, -73.947728,,,0,
401718,"1 AV/E 93 ST",,  40.781562, -73.945891,,,0,
401721,"1 AV/E 99 ST",,  40.785414, -73.943097,,,0,
401722,"1 AV/E 102 ST",,  40.787357, -73.941682,,,0,
401723,"1 AV/E 106 ST",,  40.789858, -73.939854,,,0,
401724,"1 AV/E 108 ST",,  40.791692, -73.938512,,,0,
401725,"1 AV/E 111 ST",,  40.793101, -73.937481,,,0,
401726,"1 AV/E 113 ST",,  40.794330, -73.936584,,,0,
401727,"1 AV/E 116 ST",,  40.796323, -73.935122,,,0,
401729,"1 AV/E 120 ST",,  40.798936, -73.933223,,,0,
401730,"1 AV/PALADINO AV",,  40.800360, -73.932182,,,0,
401731,"1 AV/E 125 ST",,  40.801611, -73.931268,,,0,
401732,"E 126 ST/2 AV",,  40.803230, -73.932451,,,0,
401738,"2 AV/E 125 ST",,  40.802473, -73.933855,,,0,
401739,"2 AV/E 122 ST",,  40.800564, -73.935233,,,0,
401740,"2 AV/E 119 ST",,  40.798669, -73.936610,,,0,
401741,"2 AV/E 116 ST",,  40.796723, -73.938040,,,0,
401742,"2 AV/E 113 ST",,  40.794823, -73.939429,,,0,
401744,"2 AV/E 108 ST",,  40.791673, -73.941736,,,0,
401745,"2 AV/E 106 ST",,  40.790331, -73.942715,,,0,
401746,"2 AV/103 ST",,  40.788563, -73.944015,,,0,
401747,"2 AV/E 101 ST",,  40.787352, -73.944893,,,0,
401748,"2 AV/E 97 ST",,  40.785065, -73.946555,,,0,
401749,"2 AV/E 96 ST",,  40.784123, -73.947258,,,0,
401753,"2 AV/E 87 ST",,  40.778415, -73.951437,,,0,
401754,"2 AV/E 84 ST",,  40.776302, -73.952953,,,0,
401755,"2 AV/E 82 ST",,  40.775053, -73.953870,,,0,
401756,"2 AV/E 78 ST",,  40.772922, -73.955434,,,0,
401758,"2 AV/E 75 ST",,  40.770821, -73.956950,,,0,
401759,"2 AV/E 72 ST",,  40.768727, -73.958485,,,0,
401760,"2 AV/E 70 ST",,  40.767330, -73.959501,,,0,
401761,"2 AV/E 68 ST",,  40.765990, -73.960476,,,0,
401762,"2 AV/E 66 ST",,  40.764664, -73.961439,,,0,
401763,"2 AV/E 64 ST",,  40.763471, -73.962314,,,0,
401764,"2 AV/E 61 ST",,  40.761523, -73.963754,,,0,
401765,"2 AV/E 57 ST",,  40.758987, -73.965601,,,0,
401768,"2 AV/E 50 ST",,  40.754623, -73.968787,,,0,
401769,"2 AV/E 46 ST",,  40.752481, -73.970371,,,0,
401771,"2 AV/E 42 ST",,  40.749502, -73.972517,,,0,
401772,"2 AV/E 39 ST",,  40.747638, -73.973880,,,0,
401775,"2 AV/E 31 ST",,  40.742638, -73.977523,,,0,
401778,"2 AV/E 25 ST",,  40.738933, -73.980226,,,0,
401779,"2 AV/E 23 ST",,  40.737516, -73.981202,,,0,
401780,"2 AV/E 20 ST",,  40.735746, -73.982489,,,0,
401781,"2 AV/E 17 ST",,  40.733996, -73.983769,,,0,
401782,"2 AV/E 14 ST",,  40.732494, -73.984903,,,0,
401784,"2 AV/E 9 ST",,  40.728891, -73.987523,,,0,
401785,"2 AV/E 6 ST",,  40.727161, -73.988785,,,0,
401786,"2 AV/E 3 ST",,  40.725343, -73.990108,,,0,
401787,"E HOUSTON ST/FORSYTH ST",,  40.723329, -73.990427,,,0,
401793,"ALLEN ST/CANAL ST",,  40.714855, -73.992805,,,0,
401797,"PEARL ST/FRANKFORT ST",,  40.709399, -74.001915,,,0,
401802,"WATER ST/HANOVER SQ",,  40.703882, -74.009427,,,0,
401806,"WORTH ST/CENTRE ST",,  40.715354, -74.002503,,,0,
401808,"CENTRE ST/CHAMBERS ST",,  40.713272, -74.004029,,,0,
401812,"W 42 ST/12 AV",,  40.761908, -74.001056,,,0,
401813,"W 42 ST/11 AV",,  40.760542, -73.997928,,,0,
401814,"W 42 ST/10 AV",,  40.759359, -73.995076,,,0,
401818,"W 34 ST/9 AV",,  40.753106, -73.995857,,,0,
401819,"W 34 ST/8 AV",,  40.751988, -73.993312,,,0,
401821,"W 34 ST/BROADWAY",,  40.749624, -73.987617,,,0,
401822,"E 34 ST/5 AV",,  40.748192, -73.984134,,,0,
401824,"E 34 ST/PARK AV",,  40.746797, -73.980890,,,0,
401826,"E 34 ST/3 AV",,  40.745446, -73.977711,,,0,
401827,"E 34 ST/2 AV",,  40.744771, -73.976091,,,0,
401832,"E 23 ST/2 AV",,  40.737663, -73.980554,,,0,
401833,"E 23 ST/1 AV",,  40.736691, -73.978245,,,0,
401840,"E 34 ST/3 AV",,  40.745998, -73.978634,,,0,
401842,"E 34 ST/PARK AV",,  40.747234, -73.981547,,,0,
401847,"W 34 ST/7 AV",,  40.751250, -73.991027,,,0,
401848,"W 34 ST/8 AV",,  40.752301, -73.993588,,,0,
401850,"8 AV/W 40 ST",,  40.756261, -73.990408,,,0,
401851,"W 42 ST/8 AV",,  40.757575, -73.990464,,,0,
401852,"W 42 ST/9 AV",,  40.758670, -73.992979,,,0,
401853,"W 42 ST/10 AV",,  40.759888, -73.995834,,,0,
401857,"WATERSIDE/WATERSIDE 1",,  40.738058, -73.973463,,,0,
401858,"WATERSIDE/WATERSIDE 2",,  40.739144, -73.972885,,,0,
401867,"W 81 ST/COLUMBUS AV",,  40.782980, -73.974189,,,0,
401868,"W 81 ST/CENTRAL PK W",,  40.782008, -73.971925,,,0,
401869,"E 79 ST TRANSVERSE/E 79 ST TRANSVERSE",,  40.778765, -73.968554,,,0,
401870,"E 79 ST/5 AV",,  40.776768, -73.963421,,,0,
401875,"E 79 ST/2 AV",,  40.773093, -73.954700,,,0,
401876,"E 79 ST/1 AV",,  40.772051, -73.952224,,,0,
401877,"YORK AV/E 79 ST",,  40.771580, -73.950235,,,0,
401878,"E 80 ST/EAST END AV",,  40.771092, -73.947770,,,0,
401880,"E 79 ST/EAST END AV",,  40.770740, -73.948716,,,0,
401881,"E 79 ST/YORK AV",,  40.771700, -73.950950,,,0,
401882,"E 79 ST/1 AV",,  40.772321, -73.952437,,,0,
401883,"E 79 ST/2 AV",,  40.773579, -73.955411,,,0,
401884,"E 79 ST/3 AV",,  40.774540, -73.957682,,,0,
401887,"E 79 ST/MADISON AV",,  40.776274, -73.961796,,,0,
401889,"E 79 ST TRANSVERSE/E 79 ST TRANSVERSE",,  40.779084, -73.968749,,,0,
401890,"W 81 ST/CENTRAL PK W",,  40.782268, -73.972066,,,0,
401893,"W 79 ST/BROADWAY",,  40.784040, -73.980165,,,0,
401897,"W 86 ST/AMSTERDAM AV",,  40.787750, -73.975401,,,0,
401898,"W 86 ST/COLUMBUS AV",,  40.786476, -73.972389,,,0,
401899,"W 86 ST/CENTRAL PK W",,  40.785289, -73.969373,,,0,
401900,"W 86 ST/TRANSVERSE",,  40.784565, -73.967494,,,0,
401901,"E 84 ST/5 AV",,  40.779814, -73.960631,,,0,
401903,"E 86 ST/MADISON AV",,  40.780626, -73.958485,,,0,
401905,"E 86 ST/LEXINGTON  AV",,  40.779177, -73.954877,,,0,
401906,"E 86 ST/3 AV",,  40.778463, -73.953302,,,0,
401908,"E 86 ST/1 AV",,  40.776744, -73.949236,,,0,
401909,"YORK AV/E 86 ST",,  40.776343, -73.946753,,,0,
401910,"YORK AV/E 88 ST",,  40.777473, -73.945910,,,0,
401916,"YORK AV/E 91 ST",,  40.778847, -73.945062,,,0,
401917,"YORK AV/E 88 ST",,  40.776997, -73.946434,,,0,
401919,"E 86 ST/1 AV",,  40.776884, -73.949159,,,0,
401920,"E 86 ST/2 AV",,  40.778128, -73.952115,,,0,
401921,"E 86 ST/3 AV",,  40.778999, -73.954184,,,0,
401922,"E 86 ST/LEXINGTON AV",,  40.779905, -73.956476,,,0,
401924,"E 86 ST/MADISON AV",,  40.780881, -73.958662,,,0,
401925,"E 86 ST/5 AV",,  40.781538, -73.960312,,,0,
401926,"W 86 ST/TRANSVERSE",,  40.781406, -73.962360,,,0,
401927,"W 86 ST/CENTRAL PK W",,  40.785700, -73.970102,,,0,
401929,"W 86 ST/AMSTERDAM AV",,  40.787698, -73.974816,,,0,
401930,"W 86 ST/BROADWAY",,  40.788358, -73.976790,,,0,
401933,"W 96 ST/WEST END AV",,  40.794933, -73.972689,,,0,
401934,"W 96 ST/BROADWAY",,  40.794392, -73.971407,,,0,
401935,"W 96 ST/AMSTERDAM AV",,  40.793798, -73.970006,,,0,
401936,"W 96 ST/COLUMBUS AV",,  40.792604, -73.967161,,,0,
401937,"W 96 ST/CENTRAL PK W",,  40.791667, -73.964944,,,0,
401939,"E 96 ST/MADISON AV",,  40.786986, -73.953853,,,0,
401941,"E 96 ST/LEXINGTON AV",,  40.785852, -73.951207,,,0,
401942,"E 96 ST/3 AV",,  40.784948, -73.948998,,,0,
401943,"E 96 ST/2 AV",,  40.784068, -73.946933,,,0,
401946,"3 AV/E 99 ST",,  40.787906, -73.947273,,,0,
401947,"3 AV/E 102 ST",,  40.789273, -73.946287,,,0,
401948,"3 AV/E 104 ST",,  40.790540, -73.945358,,,0,
401950,"E 106 ST/2 AV",,  40.790384, -73.942110,,,0,
401951,"E 106 ST/1 AV",,  40.789401, -73.939775,,,0,
401954,"E 97 ST/1 AV",,  40.784528, -73.945491,,,0,
401955,"E 97 ST/2 AV",,  40.784894, -73.946279,,,0,
401957,"E 96 ST/3 AV",,  40.785357, -73.949465,,,0,
401958,"E 96 ST/LEXINGTON AV",,  40.786099, -73.951246,,,0,
401960,"E 96 ST/MADISON AV",,  40.787241, -73.953875,,,0,
401961,"E 97 ST/5 AV",,  40.788581, -73.955047,,,0,
401964,"W 96 ST/AMSTERDAM AV",,  40.794037, -73.970096,,,0,
401965,"W 96 ST/BROADWAY",,  40.794600, -73.971451,,,0,
401966,"W 97 ST/WEST END AV",,  40.795852, -73.972403,,,0,
401968,"E 105 ST/1 AV",,  40.788901, -73.940313,,,0,
401969,"E 106 ST/1 AV",,  40.789898, -73.940478,,,0,
401970,"E 106 ST/2 AV",,  40.790769, -73.942597,,,0,
401971,"E 106 ST/3 AV",,  40.791597, -73.944502,,,0,
401973,"LEXINGTON AV/E 104 ST",,  40.790570, -73.947556,,,0,
401974,"LEXINGTON AV/E 102 ST",,  40.789366, -73.948437,,,0,
401977,"W 106 ST/BROADWAY",,  40.801329, -73.967601,,,0,
401988,"W 116 ST/MALCOLM X BL",,  40.801755, -73.949213,,,0,
401989,"W 116 ST/5 AV",,  40.800666, -73.946710,,,0,
401990,"E 116 ST/MADISON AV",,  40.799718, -73.944398,,,0,
401991,"E 116 ST/PARK AV",,  40.799351, -73.943519,,,0,
401992,"E 116 ST/LEXINGTON AV",,  40.798605, -73.941821,,,0,
401993,"E 116 ST/3 AV",,  40.797712, -73.939691,,,0,
401994,"E 116 ST/2 AV",,  40.796991, -73.937987,,,0,
401998,"PLEASANT AV/E 120 ST",,  40.797246, -73.931695,,,0,
401999,"E 116 ST/PLEASANT AV",,  40.795306, -73.933510,,,0,
402000,"E 116 ST/1 AV",,  40.796005, -73.935171,,,0,
402001,"E 116 ST/2 AV",,  40.797247, -73.938121,,,0,
402002,"E 116 ST/3 AV",,  40.797928, -73.939742,,,0,
402003,"E 116 ST/LEXINGTON AV",,  40.798601, -73.941471,,,0,
402004,"E 116 ST/PARK AV",,  40.799171, -73.942827,,,0,
402005,"E 116 ST/MADISON AV",,  40.800172, -73.945170,,,0,
402006,"E 116 ST/5 AV",,  40.800626, -73.946224,,,0,
402016,"W 106 ST/COLUMBUS AV",,  40.799239, -73.962661,,,0,
402017,"W 106 ST/AMSTERDAM AV",,  40.800678, -73.966059,,,0,
402018,"W 106 ST/BROADWAY",,  40.801424, -73.968241,,,0,
402022,"W HOUSTON ST/AV OF THE AMERICAS",,  40.728226, -74.002663,,,0,
402023,"W HOUSTON ST/SULLIVAN ST",,  40.727478, -74.001098,,,0,
402024,"W HOUSTON ST/W BROADWAY",,  40.726524, -73.999412,,,0,
402028,"E HOUSTON ST/MOTT ST",,  40.724449, -73.993704,,,0,
402030,"E HOUSTON ST/BOWERY",,  40.723836, -73.992093,,,0,
402032,"E HOUSTON ST/ESSEX ST",,  40.722147, -73.986565,,,0,
402033,"E HOUSTON ST/NORFOLK ST",,  40.721682, -73.984971,,,0,
402034,"E HOUSTON ST/CLINTON ST",,  40.721285, -73.983737,,,0,
402036,"AV C/E 3 ST",,  40.721781, -73.980425,,,0,
402037,"AV C/E 5 ST",,  40.723008, -73.979516,,,0,
402038,"AV C/E 7 ST",,  40.724334, -73.978577,,,0,
402039,"AV C/E 11 ST",,  40.726278, -73.977140,,,0,
402041,"AV C/E 14 ST",,  40.728297, -73.975689,,,0,
402042,"AV C/E 16 ST",,  40.729699, -73.974715,,,0,
402043,"AV C/FDR DRIVE",,  40.730813, -73.973903,,,0,
402048,"E 29 ST/1 AV",,  40.740788, -73.975905,,,0,
402049,"E 29 ST/2 AV",,  40.741591, -73.977915,,,0,
402052,"E 23 ST/AV C",,  40.735500, -73.975374,,,0,
402054,"AV C/E 20 ST",,  40.732795, -73.974542,,,0,
402055,"AV C/E 18 ST",,  40.731266, -73.974185,,,0,
402056,"AV C/E 16 ST",,  40.730031, -73.974881,,,0,
402057,"AV C/E 14 ST",,  40.729142, -73.975473,,,0,
402067,"E HOUSTON ST/AV B",,  40.721692, -73.984158,,,0,
402068,"E HOUSTON ST/AV A",,  40.722234, -73.986069,,,0,
402071,"E HOUSTON ST/BOWERY",,  40.724255, -73.992852,,,0,
402080,"CHAMBERS ST/WEST ST",,  40.717131, -74.012599,,,0,
402085,"FRANKFORT ST/PEARL ST",,  40.709555, -74.001873,,,0,
402088,"MADISON ST/OLIVER ST",,  40.711877, -73.997922,,,0,
402090,"MADISON ST/MARKET ST",,  40.712207, -73.994092,,,0,
402091,"MADISON ST/PIKE ST",,  40.712393, -73.992032,,,0,
402092,"MADISON ST/RUTGERS ST",,  40.712601, -73.989561,,,0,
402093,"MADISON ST/JEFFERSON ST",,  40.712697, -73.988399,,,0,
402094,"MADISON ST/CLINTON ST",,  40.712865, -73.986455,,,0,
402095,"MADISON ST/MONTGOMERY ST",,  40.713043, -73.984583,,,0,
402096,"MADISON ST/GOUVERNEUR ST",,  40.713152, -73.983555,,,0,
402097,"MADISON ST/GOUVERNEUR ST",,  40.713331, -73.981762,,,0,
402100,"GRAND ST/FDR DR",,  40.713264, -73.977982,,,0,
402102,"CHERRY ST/JACKSON ST",,  40.712296, -73.980525,,,0,
402103,"JACKSON ST/MADISON ST",,  40.713361, -73.980705,,,0,
402104,"MADISON ST/JACKSON ST",,  40.713586, -73.981358,,,0,
402105,"MADISON ST/GOUVERNEUR ST",,  40.713218, -73.984341,,,0,
402106,"MADISON ST/MONTGOMERY ST",,  40.713092, -73.985553,,,0,
402107,"MADISON ST/CLINTON ST",,  40.712931, -73.987440,,,0,
402108,"MADISON ST/JEFFERSON ST",,  40.712807, -73.988886,,,0,
402109,"MADISON ST/RUTGERS ST",,  40.712684, -73.990419,,,0,
402110,"MADISON ST/PIKE ST",,  40.712489, -73.992197,,,0,
402111,"MADISON ST/MARKET ST",,  40.712325, -73.994744,,,0,
402112,"MADISON ST/CATHERINE ST",,  40.712064, -73.997462,,,0,
402118,"CHAMBERS ST/BROADWAY",,  40.714164, -74.006143,,,0,
402119,"CHAMBERS ST/CHURCH ST",,  40.714935, -74.007730,,,0,
402120,"CHAMBERS ST/HUDSON ST",,  40.715652, -74.009434,,,0,
402124,"W 23 ST/10 AV",,  40.747425, -74.003764,,,0,
402125,"W 23 ST/9 AV",,  40.746244, -74.000956,,,0,
402126,"W 23 ST/8 AV",,  40.745059, -73.998141,,,0,
402127,"W 23 ST/7 AV",,  40.743952, -73.995493,,,0,
402128,"W 23 ST/6 AV",,  40.742360, -73.991763,,,0,
402130,"E 23 ST/BROADWAY",,  40.741142, -73.988790,,,0,
402132,"E 23 ST/PARK AV S",,  40.739922, -73.985994,,,0,
402134,"E 23 ST/3 AV",,  40.738589, -73.982755,,,0,
402142,"E 20 ST/1 AV",,  40.734950, -73.979534,,,0,
402143,"E 23 ST/1 AV",,  40.737297, -73.979360,,,0,
402144,"E 23 ST/2 AV",,  40.738311, -73.981712,,,0,
402145,"E 23 ST/3 AV",,  40.739027, -73.983456,,,0,
402152,"W 23 ST/AV OF THE AMERICAS",,  40.743101, -73.993064,,,0,
402153,"W 23 ST/7 AV",,  40.744403, -73.996167,,,0,
402154,"W 23 ST/8 AV",,  40.745547, -73.998888,,,0,
402155,"W 23 ST/9 AV",,  40.746716, -74.001653,,,0,
402157,"W 23 ST/11 AV",,  40.748876, -74.006785,,,0,
402160,"12 AV/W 43 ST",,  40.762552, -74.000157,,,0,
402161,"12 AV/W 46 ST",,  40.764287, -73.998337,,,0,
402162,"12 AV/W 48 ST",,  40.765583, -73.997431,,,0,
402163,"W 50 ST/12 AV",,  40.766621, -73.996653,,,0,
402164,"W 50 ST/11 AV",,  40.765735, -73.994534,,,0,
402165,"W 50 ST/10 AV",,  40.764502, -73.991704,,,0,
402166,"W 50 ST/9 AV",,  40.763468, -73.989101,,,0,
402167,"W 50 ST/8 AV",,  40.762023, -73.985792,,,0,
402169,"W 50 ST/AV OF THE AMERICAS",,  40.759675, -73.980215,,,0,
402171,"E 50 ST/5 AV",,  40.758431, -73.977104,,,0,
402172,"E 50 ST/MADISON AV",,  40.757723, -73.975397,,,0,
402173,"E 50 ST/LEXINGTON AV",,  40.756243, -73.972135,,,0,
402174,"E 50 ST/3 AV",,  40.755545, -73.970482,,,0,
402175,"E 50 ST/2 AV",,  40.754881, -73.968800,,,0,
402183,"E 49 ST/1 AV",,  40.753508, -73.966967,,,0,
402185,"E 49 ST/3 AV",,  40.755381, -73.971417,,,0,
402186,"E 49 ST/LEXINGTON AV",,  40.756139, -73.973080,,,0,
402188,"E 49 ST/MADISON AV",,  40.757440, -73.976217,,,0,
402189,"W 49 ST/5 AV",,  40.758113, -73.978021,,,0,
402191,"W 49 ST/AV OF THE AMERICAS",,  40.759503, -73.981121,,,0,
402194,"W 49 ST/9 AV",,  40.763033, -73.989557,,,0,
402195,"W 49 ST/10 AV",,  40.764100, -73.991985,,,0,
402205,"W 57 ST/11 AV",,  40.770230, -73.991334,,,0,
402214,"E 57 ST/LEXINGTON AV",,  40.760727, -73.968725,,,0,
402215,"E 57 ST/3 AV",,  40.759910, -73.966804,,,0,
402216,"E 57 ST/2 AV",,  40.759086, -73.964860,,,0,
402217,"E 57 ST/1 AV",,  40.758095, -73.962478,,,0,
402218,"E 57 ST/SUTTON PL",,  40.757658, -73.961488,,,0,
402221,"E 55 ST/1 AV",,  40.756998, -73.963634,,,0,
402222,"E 57 ST/1 AV",,  40.758562, -73.963301,,,0,
402223,"E 57 ST/2 AV",,  40.759570, -73.965679,,,0,
402224,"E 57 ST/3 AV",,  40.760521, -73.967931,,,0,
402228,"W 57 ST/5 AV",,  40.763167, -73.974327,,,0,
402229,"W 57 ST/AV OF THE AMERICAS",,  40.764577, -73.977639,,,0,
402233,"W 57 ST/9 AV",,  40.768068, -73.985902,,,0,
402269,"W 72 ST/CENTRAL PK W",,  40.776206, -73.976177,,,0,
402290,"E 72 ST/MADISON AV",,  40.771502, -73.964994,,,0,
402292,"E 72 ST/LEXINGTON AV",,  40.770268, -73.962107,,,0,
402293,"E 72 ST/3 AV",,  40.769518, -73.960284,,,0,
402295,"E 72 ST/1 AV",,  40.767672, -73.955852,,,0,
402296,"E 72 ST/YORK AV",,  40.766950, -73.954116,,,0,
402298,"E 72 ST/1 AV",,  40.768049, -73.956372,,,0,
402299,"E 72 ST/2 AV",,  40.769046, -73.958721,,,0,
402300,"E 72 ST/3 AV",,  40.769996, -73.960984,,,0,
402301,"E 72 ST/LEXINGTON AV",,  40.770658, -73.962551,,,0,
402303,"E 72 ST/MADISON AV",,  40.771790, -73.965247,,,0,
402328,"SUTTON PL/SUTTON SQ",,  40.758260, -73.959957,,,0,
402330,"YORK AV/E 63 ST",,  40.761483, -73.957570,,,0,
402331,"YORK AV/E 66 ST",,  40.763333, -73.956240,,,0,
402334,"YORK AV/E 72 ST",,  40.767166, -73.953440,,,0,
402336,"YORK AV/E 76 ST",,  40.769679, -73.951606,,,0,
402338,"YORK AV/E 82 ST",,  40.773596, -73.948771,,,0,
402339,"YORK AV/E 84 ST",,  40.774863, -73.947842,,,0,
402345,"YORK AV/E 86 ST",,  40.775777, -73.947318,,,0,
402346,"YORK AV/E 84 ST",,  40.774314, -73.948386,,,0,
402347,"YORK AV/E 82 ST",,  40.773109, -73.949262,,,0,
402348,"YORK AV/E 79 ST",,  40.771081, -73.950753,,,0,
402349,"YORK AV/E 77 ST",,  40.769815, -73.951645,,,0,
402351,"YORK AV/E 72 ST",,  40.766595, -73.954011,,,0,
402355,"YORK AV/E 64 ST",,  40.761551, -73.957684,,,0,
402446,"5 AV/W 58 ST",,  40.763251, -73.973803,,,0,
402458,"LEXINGTON AV/E 125 ST",,  40.804580, -73.937417,,,0,
402460,"E 124 ST/3 AV",,  40.803051, -73.936515,,,0,
402461,"E 124 ST/2 AV",,  40.802148, -73.934477,,,0,
402498,"E 126 ST/2 AV",,  40.803670, -73.933538,,,0,
402502,"E 125 ST/3 AV",,  40.803935, -73.936221,,,0,
402503,"E 125 ST/LEXINGTON AV",,  40.804584, -73.937761,,,0,
402504,"E 125 ST/PARK AV",,  40.805301, -73.939475,,,0,
402505,"E 125 ST/MADISON AV",,  40.805979, -73.940999,,,0,
402506,"W 125 ST/5 AV",,  40.806542, -73.942440,,,0,
402507,"W 125 ST/MALCOLM X BL",,  40.808026, -73.945964,,,0,
402508,"W 125 ST/ADAM C POWELL BL",,  40.809228, -73.948781,,,0,
402509,"W 125 ST/FRED DOUGLASS BL",,  40.810402, -73.951598,,,0,
402510,"W 125 ST/ST NICHOLAS AV",,  40.811005, -73.953007,,,0,
402512,"W 125 ST/AMSTERDAM AV",,  40.813269, -73.956121,,,0,
402517,"AMSTERDAM AV/W 135 ST",,  40.819316, -73.951840,,,0,
402518,"AMSTERDAM AV/W 138 ST",,  40.821041, -73.950578,,,0,
402519,"AMSTERDAM AV/W 140 ST",,  40.822402, -73.949594,,,0,
402520,"AMSTERDAM AV/W 143 ST",,  40.824241, -73.948260,,,0,
402521,"AMSTERDAM AV/W 145 ST",,  40.825615, -73.947231,,,0,
402526,"AMSTERDAM AV/W 155 ST",,  40.831683, -73.942827,,,0,
402535,"BROADWAY/W 173 ST",,  40.844953, -73.938676,,,0,
402634,"3 AV/E 31 ST",,  40.743707, -73.979544,,,0,
402638,"AMSTERDAM AV/W 158 ST",,  40.833351, -73.941776,,,0,
402639,"AMSTERDAM AV/W 156 ST",,  40.831932, -73.942813,,,0,
402641,"AMSTERDAM AV/W 152 ST",,  40.829745, -73.944372,,,0,
402642,"AMSTERDAM AV/W 150 ST",,  40.828060, -73.945613,,,0,
402643,"AMSTERDAM AV/W 148 ST",,  40.826908, -73.946446,,,0,
402644,"AMSTERDAM AV/W 145 ST",,  40.824949, -73.947888,,,0,
402645,"AMSTERDAM AV/W 143 ST",,  40.823629, -73.948866,,,0,
402646,"AMSTERDAM AV/W 140 ST",,  40.821716, -73.950244,,,0,
402647,"AMSTERDAM AV/W 138 ST",,  40.820487, -73.951130,,,0,
402653,"W 125 ST/AMSTERDAM AV",,  40.812602, -73.955693,,,0,
402656,"W 125 ST/ST NICHOLAS AV",,  40.810526, -73.952174,,,0,
402657,"W 125 ST/FRED DOUGLASS BL",,  40.809908, -73.950705,,,0,
402658,"W 125 ST/ADAM C POWELL BL",,  40.808700, -73.947836,,,0,
402659,"W 125 ST/MALCOLM X  BL",,  40.807514, -73.945026,,,0,
402660,"E 125 ST/5 AV",,  40.806201, -73.941853,,,0,
402661,"E 125 ST/MADISON AV",,  40.805533, -73.940296,,,0,
402662,"E 125 ST/PARK AV",,  40.804799, -73.938583,,,0,
402666,"COOPER SQ/E 6 ST",,  40.728395, -73.990611,,,0,
402670,"3 AV/E 17 ST",,  40.735511, -73.985465,,,0,
402673,"3 AV/E 26 ST",,  40.741067, -73.981419,,,0,
402674,"3 AV/E 29 ST",,  40.742894, -73.980105,,,0,
402677,"3 AV/E 37 ST",,  40.747988, -73.976370,,,0,
402678,"3 AV/E 39 ST",,  40.749176, -73.975519,,,0,
402679,"3 AV/E 42 ST",,  40.751085, -73.974122,,,0,
402680,"3 AV/E 45 ST",,  40.752407, -73.973161,,,0,
402681,"3 AV/E 47 ST",,  40.754234, -73.971850,,,0,
402682,"3 AV/E 50 ST",,  40.755505, -73.970922,,,0,
402687,"3 AV/E 65 ST",,  40.765599, -73.963509,,,0,
402688,"3 AV/E 67 ST",,  40.767113, -73.962513,,,0,
402689,"3 AV/E 69 ST",,  40.768112, -73.961718,,,0,
402691,"3 AV/E 75 ST",,  40.771857, -73.959001,,,0,
402692,"3 AV/E 77 ST",,  40.773208, -73.957990,,,0,
402694,"3 AV/E 82 ST",,  40.776582, -73.955559,,,0,
402696,"3 AV/E 88 ST",,  40.780478, -73.952701,,,0,
402697,"3 AV/E 91 ST",,  40.782258, -73.951426,,,0,
402704,"3 AV/E 109 ST",,  40.793765, -73.943005,,,0,
402705,"3 AV/E 112 ST",,  40.795775, -73.941518,,,0,
402707,"3 AV/E 118 ST",,  40.799578, -73.938718,,,0,
402723,"W 125 ST/MORNINGSIDE AV",,  40.811402, -73.954184,,,0,
402740,"AMSTERDAM AV/W 171 ST",,  40.841978, -73.935267,,,0,
402741,"AMSTERDAM AV/W 173 ST",,  40.843120, -73.934443,,,0,
402744,"AMSTERDAM AV/W 179 ST",,  40.847008, -73.931612,,,0,
402745,"AMSTERDAM AV/W 181 ST",,  40.848358, -73.930616,,,0,
402748,"AMSTERDAM AV/W 187 ST",,  40.852204, -73.927829,,,0,
402749,"AMSTERDAM AV/W 190 ST",,  40.853927, -73.926552,,,0,
402753,"BOWERY/BAYARD ST",,  40.715391, -73.996465,,,0,
402755,"BOWERY/GRAND ST",,  40.718788, -73.994542,,,0,
402757,"BOWERY/DELANCEY ST",,  40.720748, -73.993726,,,0,
402760,"BOWERY/E HOUSTON ST",,  40.723920, -73.992585,,,0,
402762,"BOWERY/E 3 ST",,  40.726723, -73.991525,,,0,
402764,"AMSTERDAM AV/W 188 ST",,  40.852241, -73.927959,,,0,
402766,"AMSTERDAM AV/W 184 ST",,  40.849558, -73.929899,,,0,
402767,"AMSTERDAM AV/W 181 ST",,  40.848228, -73.930845,,,0,
402769,"AMSTERDAM AV/W 178 ST",,  40.845883, -73.932601,,,0,
402772,"AMSTERDAM AV/W 172 ST",,  40.842043, -73.935378,,,0,
402773,"AMSTERDAM AV/W 170 ST",,  40.840658, -73.936399,,,0,
402774,"AMSTERDAM AV/W 168 ST",,  40.839549, -73.937226,,,0,
402805,"LEXINGTON AV/E 122 ST",,  40.802094, -73.939144,,,0,
402809,"LEXINGTON AV/E 114 ST",,  40.797178, -73.942746,,,0,
402811,"LEXINGTON AV/E 110 ST",,  40.794544, -73.944667,,,0,
402816,"LEXINGTON AV/E 100 ST",,  40.788270, -73.949209,,,0,
402819,"LEXINGTON AV/E 94 ST",,  40.784406, -73.952025,,,0,
402826,"LEXINGTON AV/E 79 ST",,  40.774868, -73.959032,,,0,
402829,"LEXINGTON AV/E 74 ST",,  40.771396, -73.961556,,,0,
402831,"LEXINGTON AV/E 70 ST",,  40.768759, -73.963480,,,0,
402835,"LEXINGTON AV/E 62 ST",,  40.763812, -73.967079,,,0,
402838,"LEXINGTON AV/E 56 ST",,  40.760120, -73.969776,,,0,
402842,"LEXINGTON AV/E 46 ST",,  40.754142, -73.974132,,,0,
402845,"LEXINGTON AV/E 40 ST",,  40.749766, -73.977317,,,0,
402846,"LEXINGTON AV/E 37 ST",,  40.748387, -73.978325,,,0,
402851,"LEXINGTON AV/E 28 ST",,  40.742375, -73.982721,,,0,
402852,"LEXINGTON AV/E 26 ST",,  40.741117, -73.983648,,,0,
402854,"3 AV/E 23 ST",,  40.738982, -73.983129,,,0,
402856,"3 AV/E 17 ST",,  40.734870, -73.986103,,,0,
402857,"5 AV/W 13 ST",,  40.735713, -73.993952,,,0,
402858,"3 AV/E 11 ST",,  40.730973, -73.988946,,,0,
402862,"BOWERY/BLEECKER ST",,  40.725346, -73.992211,,,0,
402863,"BOWERY/E HOUSTON ST",,  40.723756, -73.992907,,,0,
402864,"BOWERY/PRINCE ST",,  40.722055, -73.993513,,,0,
402865,"BOWERY/KENMARE ST",,  40.720035, -73.994296,,,0,
402867,"BOWERY/GRAND ST",,  40.718135, -73.995079,,,0,
402868,"BOWERY/CANAL ST",,  40.715915, -73.996422,,,0,
402869,"BOWERY/BAYARD ST",,  40.714772, -73.997100,,,0,
402870,"PARK ROW/WORTH ST",,  40.713411, -73.998961,,,0,
403036,"WEST END AV/W 72 ST",,  40.779534, -73.984810,,,0,
403037,"WEST END AV/W 69 ST",,  40.777468, -73.986337,,,0,
403038,"WEST END AV/W 66 ST",,  40.776180, -73.987276,,,0,
403047,"CENTRAL PK S/AVE OF THE AMERICAS",,  40.765655, -73.976441,,,0,
403076,"WEST END AV/W 66 ST",,  40.776334, -73.986857,,,0,
403103,"BROADWAY/W 73 ST",,  40.779589, -73.981517,,,0,
403104,"BROADWAY/W 75 ST",,  40.781301, -73.981021,,,0,
403105,"BROADWAY/W 77 ST",,  40.782726, -73.980497,,,0,
403106,"BROADWAY/W 79 ST",,  40.784084, -73.979583,,,0,
403107,"BROADWAY/W 82 ST",,  40.785994, -73.978167,,,0,
403108,"BROADWAY/W 84 ST",,  40.787215, -73.977214,,,0,
403109,"BROADWAY/W 86 ST",,  40.788533, -73.976086,,,0,
403110,"BROADWAY/W 88 ST",,  40.789801, -73.975114,,,0,
403111,"BROADWAY/W 91 ST",,  40.791669, -73.973745,,,0,
403112,"BROADWAY/W 93 ST",,  40.792967, -73.972806,,,0,
403114,"BROADWAY/W 99 ST",,  40.796724, -73.970048,,,0,
403115,"BROADWAY/W 101 ST",,  40.798143, -73.968924,,,0,
403116,"BROADWAY/W 103 ST",,  40.799320, -73.968241,,,0,
403117,"BROADWAY/W 106 ST",,  40.801818, -73.967642,,,0,
403118,"BROADWAY/W 108 ST",,  40.803132, -73.967242,,,0,
403119,"BROADWAY/CATHEDRAL PKY",,  40.804269, -73.966350,,,0,
403122,"BROADWAY/W 116 ST",,  40.807990, -73.963751,,,0,
403125,"BROADWAY/W 122 ST",,  40.812034, -73.960739,,,0,
403126,"BROADWAY/LA SALLE ST",,  40.813972, -73.959307,,,0,
403127,"BROADWAY/TIEMANN PL",,  40.814923, -73.958530,,,0,
403132,"AV OF THE AMERICAS/W 50 ST",,  40.759771, -73.980381,,,0,
403139,"MORNINGSIDE AV/W 125 ST",,  40.811475, -73.954020,,,0,
403142,"BROADWAY/TIEMANN PL",,  40.815025, -73.959043,,,0,
403144,"BROADWAY/LA SALLE ST",,  40.813736, -73.959961,,,0,
403145,"BROADWAY/W 122 ST",,  40.811738, -73.961462,,,0,
403147,"BROADWAY/W 116 ST",,  40.807957, -73.964220,,,0,
403148,"BROADWAY/W 114 ST",,  40.806645, -73.965164,,,0,
403149,"BROADWAY/W 112 ST",,  40.805377, -73.966071,,,0,
403150,"BROADWAY/CATHEDRAL PY",,  40.804085, -73.967018,,,0,
403151,"BROADWAY/W 108 ST",,  40.803163, -73.967726,,,0,
403152,"BROADWAY/W 106 ST",,  40.800986, -73.968110,,,0,
403153,"BROADWAY/W 104 ST",,  40.799738, -73.968497,,,0,
403154,"BROADWAY/W 102 ST",,  40.798434, -73.969289,,,0,
403155,"BROADWAY/W 100 ST",,  40.797180, -73.970232,,,0,
403158,"BROADWAY/W 94 ST",,  40.793162, -73.973094,,,0,
403159,"BROADWAY/W 92 ST",,  40.791906, -73.974012,,,0,
403162,"BROADWAY/W 86 ST",,  40.788066, -73.976942,,,0,
403163,"BROADWAY/W 84 ST",,  40.786820, -73.977979,,,0,
403164,"BROADWAY/W 82 ST",,  40.785596, -73.978900,,,0,
403165,"BROADWAY/W 79 ST",,  40.783599, -73.980392,,,0,
403166,"BROADWAY/W 76 ST",,  40.781642, -73.981411,,,0,
403167,"BROADWAY/W 74 ST",,  40.780165, -73.981863,,,0,
403168,"BROADWAY/W 72 ST",,  40.778655, -73.982115,,,0,
403169,"BROADWAY/W 70 ST",,  40.776767, -73.982304,,,0,
403171,"BROADWAY/W 65 ST",,  40.773284, -73.982406,,,0,
403191,"W 34 ST/11 AV",,  40.755718, -74.001906,,,0,
403192,"W 34 ST/10 AV",,  40.754330, -73.998776,,,0,
403216,"E 34 ST/2 AV",,  40.745040, -73.976264,,,0,
403238,"W 42 ST/9 AV",,  40.757961, -73.991925,,,0,
403239,"W 42 ST/8 AV",,  40.757191, -73.989904,,,0,
403240,"W 42 ST/7 AV",,  40.756259, -73.987735,,,0,
403241,"W 42 ST/BROADWAY",,  40.755271, -73.985338,,,0,
403242,"W 42 ST/6 AV",,  40.754535, -73.983640,,,0,
403245,"E 42 ST/LEXINGTON AV",,  40.751149, -73.975605,,,0,
403246,"E 42 ST/3 AV",,  40.750775, -73.974499,,,0,
403247,"E 42 ST/2 AV",,  40.749581, -73.971881,,,0,
403248,"E 42 ST/1 AV",,  40.748582, -73.969655,,,0,
403249,"E 41 ST/1 AV",,  40.747864, -73.969576,,,0,
403251,"E 42 ST/1 AV",,  40.749076, -73.970286,,,0,
403252,"E 42 ST/2 AV",,  40.750086, -73.972599,,,0,
403253,"E 42 ST/3 AV",,  40.751014, -73.974764,,,0,
403254,"E 42 ST/LEXINGTON AV",,  40.751484, -73.975911,,,0,
403257,"W 42 ST/5 AV",,  40.753570, -73.980980,,,0,
403259,"W 42 ST/7 AV",,  40.756311, -73.987399,,,0,
403264,"11 AV/W 42 ST",,  40.760639, -73.998508,,,0,
403266,"5 AV/W 55 ST",,  40.761573, -73.975039,,,0,
403267,"CENTRAL PK N/5 AV",,  40.797182, -73.949152,,,0,
403271,"BROADWAY/W 66 ST",,  40.774269, -73.982027,,,0,
403276,"FRED DOUGLASS BL/W 128 ST",,  40.811896, -73.950046,,,0,
403292,"AMSTERDAM AV/LA SALLE ST",,  40.812755, -73.956592,,,0,
403297,"YORK AV/E 69 ST",,  40.765019, -73.955171,,,0,
403303,"E HOUSTON ST/AV C",,  40.720988, -73.981738,,,0,
403304,"AV C/E 3 ST",,  40.721384, -73.980901,,,0,
403305,"AV C/E 6 ST",,  40.723242, -73.979573,,,0,
403306,"AV C/E 8 ST",,  40.724441, -73.978696,,,0,
403307,"AV C/E 10 ST",,  40.725624, -73.977837,,,0,
403311,"BROADWAY/W HOUSTON ST",,  40.725107, -73.997106,,,0,
403312,"W 10 ST/HUDSON ST",,  40.733775, -74.005849,,,0,
403313,"W 10 ST/GREENWICH ST",,  40.733501, -74.007459,,,0,
403316,"E 25 ST/PARK AV S",,  40.741564, -73.985493,,,0,
403317,"ESSEX ST/GRAND ST",,  40.716820, -73.989005,,,0,
403318,"ESSEX ST/DELANCEY ST",,  40.718247, -73.988474,,,0,
403319,"ESSEX ST/RIVINGTON ST",,  40.719587, -73.987781,,,0,
403320,"AV A/E HOUSTON ST",,  40.722573, -73.985955,,,0,
403323,"W HOUSTON ST/LA GUARDIA PL",,  40.726916, -73.999765,,,0,
403326,"E 105 ST/FDR  DR",,  40.788277, -73.938840,,,0,
403338,"ADAM C POWELL BL/W 151 ST",,  40.825612, -73.935955,,,0,
403342,"2 AV/E 94 ST",,  40.782675, -73.948302,,,0,
403350,"WORTH ST/MOTT ST",,  40.713757, -73.999037,,,0,
403354,"W 42 ST/BROADWAY",,  40.755754, -73.986046,,,0,
403359,"E 34 ST/1 AV",,  40.744007, -73.973940,,,0,
403362,"COLUMBUS AV/W 97 ST",,  40.793273, -73.967359,,,0,
403367,"E 91 ST/YORK AV",,  40.779214, -73.944942,,,0,
403372,"COLUMBUS AV/W 75 ST",,  40.778875, -73.977858,,,0,
403373,"FT WASHINGTON AV/W 168 ST",,  40.841900, -73.942467,,,0,
403374,"FT WASHINGTON AV/W 165 ST",,  40.839905, -73.943263,,,0,
403375,"FT WASHINGTON AV/W 164 ST",,  40.838725, -73.943731,,,0,
403376,"FT WASHINGTON AV/W 162 ST",,  40.837542, -73.944201,,,0,
403377,"FT WASHINGTON AV/W 160 ST",,  40.836093, -73.944759,,,0,
403380,"DELANCEY ST/COLUMBIA ST",,  40.716444, -73.980503,,,0,
403383,"1 AV/E 91 ST",,  40.780248, -73.946809,,,0,
403392,"MANHATTAN AV/CATHEDRAL PY",,  40.800882, -73.959940,,,0,
403397,"WEST THAMES ST/SOUTH END AV",,  40.708407, -74.017093,,,0,
403399,"SOUTH END AV/ALBANY ST",,  40.711472, -74.015762,,,0,
403415,"PARK AV/E 125 ST",,  40.804807, -73.939454,,,0,
403416,"LEXINGTON AV/E 116 ST",,  40.798149, -73.942022,,,0,
403417,"LEXINGTON AV/E 106 ST",,  40.791892, -73.946585,,,0,
403418,"LEXINGTON AV/E 96 ST",,  40.785502, -73.951206,,,0,
403419,"LEXINGTON AV/E 86 ST",,  40.779310, -73.955763,,,0,
403421,"LEXINGTON AV/E 72 ST",,  40.770316, -73.962352,,,0,
403422,"LEXINGTON AV/E 68 ST",,  40.767713, -73.964248,,,0,
403424,"LEXINGTON AV/E 50 ST",,  40.756586, -73.972348,,,0,
403425,"LEXINGTON AV/E 42 ST",,  40.750843, -73.976533,,,0,
403427,"3 AV/E 33 ST",,  40.745188, -73.978434,,,0,
403432,"3 AV/E 72 ST",,  40.770075, -73.960281,,,0,
403433,"3 AV/E 79 ST",,  40.774605, -73.956970,,,0,
403434,"3 AV/E 86 ST",,  40.778466, -73.954179,,,0,
403436,"3 AV/E 106 ST",,  40.791890, -73.944367,,,0,
403438,"3 AV/E 122 ST",,  40.802025, -73.936967,,,0,
403439,"W 179 ST/AMSTERDAM AV",,  40.847044, -73.932251,,,0,
403440,"W 179 ST/ST NICHOLAS AV",,  40.848025, -73.934477,,,0,
403443,"E 10 ST/AV D",,  40.725082, -73.975456,,,0,
403444,"HUDSON ST/NORTH MOORE ST",,  40.719859, -74.008499,,,0,
403447,"W 135 ST/BROADWAY",,  40.819614, -73.954283,,,0,
403454,"BROADWAY/W 119 ST",,  40.809721, -73.962868,,,0,
403456,"MADISON AV/E 37 ST",,  40.750124, -73.981081,,,0,
403457,"MADISON AV/E 40  ST",,  40.752018, -73.979743,,,0,
403459,"E 42 ST/PARK AV",,  40.751880, -73.977330,,,0,
403461,"BROADWAY/W 133 ST",,  40.818494, -73.955937,,,0,
403465,"W 42 ST/5 AV",,  40.753319, -73.980751,,,0,
403466,"ST NICHOLAS AV/FORT GEORGE HILL",,  40.857071, -73.927934,,,0,
403472,"AMSTERDAM AV/W 67 ST",,  40.775639, -73.983670,,,0,
403475,"GRAND ST/ESSEX ST",,  40.716485, -73.988824,,,0,
403480,"1 AV/E 34 ST",,  40.744172, -73.973187,,,0,
403483,"BROADWAY/W 145 ST",,  40.826693, -73.950480,,,0,
403486,"W 42 ST/11 AV",,  40.760822, -73.998047,,,0,
403487,"W 66 ST/WEST END AV",,  40.776008, -73.987020,,,0,
403488,"W 65 ST/WEST END AV",,  40.775118, -73.987280,,,0,
403489,"W 65 ST/AMSTERDAM AV",,  40.773871, -73.984293,,,0,
403491,"W 65 ST/BROADWAY",,  40.773177, -73.982788,,,0,
403492,"W 65 ST/CENTRAL PK W",,  40.771810, -73.979385,,,0,
403494,"E 65 ST/5 AV",,  40.767811, -73.969931,,,0,
403495,"E 68 ST/MADISON AV",,  40.768993, -73.966909,,,0,
403497,"E 68 ST/LEXINGTON AV",,  40.767650, -73.963704,,,0,
403503,"E 67 ST/1 AV",,  40.764833, -73.958713,,,0,
403504,"E 67 ST/2 AV",,  40.765830, -73.961084,,,0,
403505,"E 67 ST/3 AV",,  40.766525, -73.962733,,,0,
403506,"E 67 ST/LEXINGTON AV",,  40.767437, -73.964888,,,0,
403508,"E 67 ST/MADISON AV",,  40.768571, -73.967584,,,0,
403510,"W 66 ST/CENTRAL PK W",,  40.772619, -73.979118,,,0,
403512,"W 66 ST/BROADWAY",,  40.774130, -73.982724,,,0,
403513,"W 66 ST/AMSTERDAM AV",,  40.775049, -73.984749,,,0,
403518,"W 87 ST/WEST END AV",,  40.789549, -73.977198,,,0,
403519,"W 34 ST/DYER AV",,  40.754080, -73.997736,,,0,
403522,"W 79 ST/RIVERSIDE DR",,  40.784786, -73.982315,,,0,
403523,"W 79 ST/BROADWAY",,  40.783867, -73.980284,,,0,
403525,"2 AV/E 28 ST",,  40.740970, -73.978757,,,0,
403526,"3 AV/E 11 ST",,  40.731680, -73.988278,,,0,
403528,"W 34 ST/9 AV",,  40.753361, -73.996044,,,0,
403537,"3 AV/E 125 ST",,  40.803890, -73.935524,,,0,
403545,"3 AV/E 60 ST",,  40.762558, -73.965738,,,0,
403547,"W 23 ST/10 AV",,  40.747919, -74.004511,,,0,
403555,"AMSTERDAM AV/W 69 ST",,  40.776913, -73.982741,,,0,
403556,"E 14 ST/IRVING PL",,  40.733947, -73.988902,,,0,
403557,"DELANCEY ST/FDR DR",,  40.715368, -73.976655,,,0,
403560,"W 86 ST/WEST END AV",,  40.788815, -73.977726,,,0,
403562,"W 57 ST/8 AV",,  40.766592, -73.982719,,,0,
403563,"YORK AV/E 69 ST",,  40.764813, -73.955165,,,0,
403573,"W 65 ST/COLUMBUS AV",,  40.772835, -73.981874,,,0,
403590,"PEARL ST/FULTON ST",,  40.707631, -74.004000,,,0,
403604,"W 125 ST/AMSTERDAM AV",,  40.813693, -73.956392,,,0,
403606,"W 72 ST/COLUMBUS AV",,  40.777403, -73.979019,,,0,
403608,"WEST END AV/W 69 ST",,  40.777706, -73.985853,,,0,
403610,"W 72 ST/CENTRAL PK W",,  40.776470, -73.976318,,,0,
403611,"W 72 ST/COLUMBUS AV",,  40.777656, -73.979141,,,0,
403612,"W 72 ST/AMSTERDAM AV",,  40.778609, -73.981401,,,0,
403617,"E 57 ST/LEXINGTON AV",,  40.761183, -73.969508,,,0,
403620,"E 57 ST/MADISON AV",,  40.762047, -73.971943,,,0,
403621,"W 57 ST/AV OF THE AMERICAS",,  40.764061, -73.976728,,,0,
403626,"WEST END AV/W 59 ST",,  40.771410, -73.990797,,,0,
403632,"E 96 ST/2 AV",,  40.784335, -73.947220,,,0,
403647,"ALLEN ST/DELANCEY ST",,  40.719411, -73.990466,,,0,
403670,"W 179 ST/BROADWAY",,  40.849167, -73.937993,,,0,
403671,"E 125 ST/LEXINGTON AV",,  40.804178, -73.937065,,,0,
403672,"E 125 ST/3 AV",,  40.803485, -73.935437,,,0,
403673,"E 125 ST/2 AV",,  40.802793, -73.933781,,,0,
403674,"E 125 ST/1 AV",,  40.801794, -73.931550,,,0,
403676,"E 125 ST/2 AV",,  40.803001, -73.934009,,,0,
403677,"W 125 ST/BROADWAY",,  40.816175, -73.958569,,,0,
403698,"W 155 ST/AMSTERDAM AV",,  40.831468, -73.942882,,,0,
403711,"E 135 ST/MADISON AV",,  40.812302, -73.936529,,,0,
403726,"YORK AV/E 74 ST",,  40.768033, -73.952959,,,0,
403731,"E HOUSTON ST/2 AV",,  40.723879, -73.991401,,,0,
403732,"ESSEX ST/DELANCEY ST",,  40.718944, -73.987893,,,0,
403733,"W 79 ST/AMSTERDAM AV",,  40.783057, -73.977883,,,0,
403735,"YORK AV/E 67 ST",,  40.763371, -73.956366,,,0,
403736,"W 57 ST/7 AV",,  40.765563, -73.980322,,,0,
403749,"LEXINGTON AV/E 98 ST",,  40.787269, -73.949971,,,0,
403754,"WATER ST/WALL ST",,  40.705045, -74.007758,,,0,
403757,"W 135 ST/AMSTERDAM AV",,  40.819159, -73.952620,,,0,
403760,"W 50 ST/7 AV",,  40.761062, -73.983503,,,0,
403763,"W 125 ST/OLD BROADWAY",,  40.815072, -73.957587,,,0,
403765,"3 AV/E 93 ST",,  40.783505, -73.950493,,,0,
403766,"E 128 ST/3 AV",,  40.805377, -73.933984,,,0,
403769,"AV OF THE AMERICAS/W 31 ST",,  40.747987, -73.988909,,,0,
403772,"3 AV/E 20 ST",,  40.736709, -73.984763,,,0,
403776,"ST NICHOLAS AV/W 137 ST",,  40.818358, -73.947310,,,0,
403777,"3 AV/E 97 ST",,  40.785746, -73.948862,,,0,
403779,"W 66 ST/COLUMBUS AV",,  40.773578, -73.981381,,,0,
403781,"CENTRAL PK S/COLUMBUS CI",,  40.767567, -73.980989,,,0,
403782,"PARK AV S/E 23 ST",,  40.740471, -73.985939,,,0,
403786,"W 135 ST/AMSTERDAM AV",,  40.818923, -73.952530,,,0,
403787,"E 126 ST/3 AV",,  40.804579, -73.935704,,,0,
403791,"W 125 ST/OLD BROADWAY",,  40.815198, -73.958031,,,0,
403793,"4 AV/E 9 ST",,  40.730280, -73.990532,,,0,
403797,"7 AV/W 50 ST",,  40.760853, -73.983568,,,0,
403802,"10 AV/W 23 ST",,  40.747927, -74.003847,,,0,
403805,"E 42 ST/MADISON AV",,  40.753093, -73.979766,,,0,
403808,"E HOUSTON ST/COLUMBIA ST",,  40.719626, -73.978387,,,0,
403816,"11 AV/W 34 ST",,  40.755664, -74.002167,,,0,
403821,"LEXINGTON AV/E 34 ST",,  40.746226, -73.979892,,,0,
403822,"LEXINGTON AV/E 31 ST",,  40.744101, -73.981463,,,0,
403826,"FRED DOUGLASS BL/W 145 ST",,  40.823120, -73.941579,,,0,
403829,"W 125 ST/ST CLAIRE PL",,  40.817202, -73.959504,,,0,
403830,"W 42 ST/AV OF THE AMERICAS",,  40.754994, -73.984277,,,0,
403831,"WATER ST/JOHN ST",,  40.706813, -74.005230,,,0,
403832,"FRED DOUGLASS BL/W 138 ST",,  40.818645, -73.944849,,,0,
403835,"MARGARET CORBIN DR/CLOISTERS",,  40.865548, -73.932157,,,0,
403846,"8 AV/W  57 ST",,  40.766740, -73.982683,,,0,
403847,"AV OF THE AMERICAS/WEST BROADWAY",,  40.720826, -74.004936,,,0,
403849,"ALLEN ST/E HOUSTON ST",,  40.722516, -73.988990,,,0,
403851,"SPRING ST/HUDSON ST",,  40.725735, -74.007198,,,0,
403853,"W HOUSTON ST/HUDSON ST",,  40.728889, -74.007303,,,0,
403854,"WASHINGTON ST/W HOUSTON ST",,  40.727250, -74.009716,,,0,
403855,"3 AV/E 23 ST",,  40.739218, -73.982771,,,0,
403870,"E 14 ST/2 AV",,  40.732484, -73.985195,,,0,
403871,"E 14 ST/3 AV",,  40.733546, -73.987580,,,0,
403876,"HUDSON ST/BETHUNE ST",,  40.737071, -74.005867,,,0,
403878,"VESEY ST/NORTH END AV",,  40.714555, -74.015847,,,0,
403886,"AMSTERDAM AV/W 114 ST",,  40.805727, -73.961715,,,0,
403887,"2 AV/E 54 ST",,  40.757149, -73.966937,,,0,
403893,"E 14 ST/UNION SQ W",,  40.735465, -73.992137,,,0,
403894,"W 14 ST/5 AV",,  40.736229, -73.993956,,,0,
403895,"W 14 ST/6 AV",,  40.737664, -73.997362,,,0,
403896,"W 14 ST/7 AV",,  40.738798, -74.000047,,,0,
403897,"W 14 ST/8 AV",,  40.740027, -74.002966,,,0,
403902,"RIVERSIDE DR/W 100 ST",,  40.798851, -73.973449,,,0,
403903,"BROADWAY/W 129 ST",,  40.816170, -73.958183,,,0,
403906,"E 14 ST/4 AV",,  40.734417, -73.989702,,,0,
403907,"W 165 ST/AMSTERDAM AV",,  40.837871, -73.938159,,,0,
403908,"AUDUBON AV/W 165 ST",,  40.839052, -73.939318,,,0,
403910,"W 165 ST/AMSTERDAM AV",,  40.837687, -73.938040,,,0,
403913,"3 AV/E 14 ST",,  40.733689, -73.986787,,,0,
403914,"AV OF THE AMERICAS/W 20 ST",,  40.741155, -73.993876,,,0,
403942,"CONVENT AV/W 129 ST",,  40.814223, -73.953176,,,0,
403953,"STATE ST/BRIDGE ST",,  40.703350, -74.014524,,,0,
403954,"W 49 ST/11 AV",,  40.765477, -73.995473,,,0,
403955,"W 49 ST/12 AV",,  40.766193, -73.997183,,,0,
403956,"12 AV/W 46 ST",,  40.764460, -73.998687,,,0,
403975,"ST NICHOLAS AV/W 176 ST",,  40.846368, -73.935747,,,0,
403976,"ST NICHOLAS AV/W 184 ST",,  40.851369, -73.932102,,,0,
403978,"ST NICHOLAS AV/W 187 ST",,  40.852760, -73.931345,,,0,
403979,"ST NICHOLAS AV/W 174 ST",,  40.844905, -73.937093,,,0,
403980,"MADISON AV/E 121 ST",,  40.803482, -73.942225,,,0,
403981,"CENTRAL PK W/W 69 ST",,  40.774510, -73.977070,,,0,
403982,"FRED DOUGLASS BL/W 135 ST",,  40.816771, -73.946213,,,0,
403984,"W 57 ST/9 AV",,  40.767697, -73.985340,,,0,
403986,"W 57 ST/10 AV",,  40.769323, -73.988953,,,0,
403987,"11 AV/W 57 ST",,  40.770024, -73.991693,,,0,
403989,"E 79 ST/5 AV",,  40.776980, -73.963475,,,0,
403992,"W 57 ST/10 AV",,  40.768866, -73.988149,,,0,
403993,"E 68 ST/3 AV",,  40.766964, -73.962076,,,0,
403994,"E 68 ST/2 AV",,  40.766263, -73.960430,,,0,
403995,"E 68 ST/1 AV",,  40.765030, -73.957496,,,0,
403996,"EAST 68 ST/YORK AV",,  40.764252, -73.955750,,,0,
403997,"E 67 ST/YORK AV",,  40.763907, -73.956298,,,0,
404008,"AMSTERDAM AV/W 190 ST",,  40.853438, -73.927069,,,0,
404010,"E 8 ST/LAFAYETTE ST",,  40.730069, -73.991279,,,0,
404011,"W 135 ST/BROADWAY",,  40.820440, -73.955723,,,0,
404012,"W 135 ST/RIVERSIDE DR",,  40.821025, -73.957034,,,0,
404013,"RIVERSIDE DR/W 137 ST",,  40.822435, -73.955855,,,0,
404014,"RIVERSIDE DR/W 142 ST",,  40.825464, -73.953302,,,0,
404015,"RIVERSIDE DR/W 144 ST",,  40.826652, -73.952228,,,0,
404017,"RIVERSIDE DR/W 142 ST",,  40.825383, -73.953985,,,0,
404018,"RIVERSIDE DR/W 139 ST",,  40.823483, -73.955501,,,0,
404019,"W 135 ST/RIVERSIDE DR",,  40.820863, -73.957000,,,0,
404024,"CENTRAL PK W/W 75 ST",,  40.778511, -73.974140,,,0,
404029,"E 14 ST/1 AV",,  40.731150, -73.981962,,,0,
404030,"COLUMBUS AV/W 61 ST",,  40.770015, -73.984342,,,0,
404031,"RIVERSIDE DR/W 145 ST",,  40.827012, -73.952145,,,0,
404035,"W 49 ST/7 AV",,  40.760705, -73.984070,,,0,
404036,"WEST END AV/W 61 ST",,  40.772991, -73.989602,,,0,
404037,"SUTTON PLACE/E 55 ST",,  40.756196, -73.961653,,,0,
404039,"AV OF THE AMERICAS/W 38 ST",,  40.752139, -73.985967,,,0,
404040,"AV OF THE AMERICAS/W 40 ST",,  40.753709, -73.984732,,,0,
404043,"AV OF THE AMERICAS/W 45 ST",,  40.757030, -73.982378,,,0,
404046,"ST NICHOLAS AV/W 190 ST",,  40.855196, -73.929301,,,0,
404049,"CENTRAL PK W/W 63 ST",,  40.770657, -73.979873,,,0,
404050,"7 AV/W 56 ST",,  40.764984, -73.980553,,,0,
404054,"RIVERSIDE DR/W 94 ST",,  40.794693, -73.976593,,,0,
404056,"RIVERSIDE DR/W 139 ST",,  40.823431, -73.955324,,,0,
404058,"W 54 ST/11 AV",,  40.767925, -73.991859,,,0,
404066,"ST NICHOLAS AV/W 167 ST",,  40.840879, -73.939441,,,0,
404071,"ST NICHOLAS AV/W 124 ST",,  40.810354, -73.952753,,,0,
404075,"W 96 ST/COLUMBUS AV",,  40.793081, -73.967825,,,0,
404076,"E 106 ST/LEXINGTON AV",,  40.792011, -73.945969,,,0,
404077,"E 106 ST/3 AV",,  40.791324, -73.944338,,,0,
404079,"E 106 ST/LEXINGTON AV",,  40.792464, -73.946569,,,0,
404080,"E 106 ST/MADISON AV",,  40.793835, -73.949832,,,0,
404081,"5 AV/E 98 ST",,  40.789203, -73.954934,,,0,
404085,"12 AV/W 23 ST",,  40.748873, -74.008035,,,0,
404087,"E 96 ST/5 AV",,  40.787657, -73.955416,,,0,
404092,"3 AV/ASTOR PL",,  40.729314, -73.990194,,,0,
404099,"E 20 ST/E 20 ST Loop",,  40.734053, -73.977550,,,0,
404100,"E HOUSTON ST/RIDGE ST",,  40.720652, -73.981642,,,0,
404101,"FRANKFORT ST/WILLIAM ST",,  40.711388, -74.004401,,,0,
404103,"MADISON AV/E 114 ST",,  40.798491, -73.945816,,,0,
404104,"RIVERSIDE DR/W 103 ST",,  40.800432, -73.971727,,,0,
404105,"2 AV/E 12 ST",,  40.730796, -73.986156,,,0,
404106,"3 AV/E 14 ST",,  40.732955, -73.987502,,,0,
404108,"CHURCH ST/VESEY ST",,  40.712127, -74.010049,,,0,
404116,"W 43 ST/8 AV",,  40.758394, -73.990190,,,0,
404117,"FT TRYON PARK/OPP CAFE LOT",,  40.863331, -73.932397,,,0,
404118,"FT TRYON PARK/CAFE LOT",,  40.863798, -73.932496,,,0,
404120,"UNION SQ E/E 15 ST",,  40.735550, -73.989612,,,0,
404122,"5 AV/E  67 ST",,  40.769033, -73.969649,,,0,
404124,"W 178 ST/ST NICHOLAS AV",,  40.847336, -73.935381,,,0,
404125,"W 178 ST/AUDUBON AV",,  40.846550, -73.933445,,,0,
404129,"ADAM C POWELL BL/W 149 ST",,  40.824260, -73.936943,,,0,
404130,"RIVERSIDE DR/W 104 ST",,  40.800944, -73.971339,,,0,
404131,"RIVERSIDE DR/W 94 ST",,  40.794923, -73.976564,,,0,
404132,"AV OF THE AMERICAS/PRINCE ST",,  40.727023, -74.003348,,,0,
404133,"HUDSON ST/BARROW ST",,  40.731571, -74.006534,,,0,
404134,"CENTRAL PK W/W 79 ST",,  40.781149, -73.972233,,,0,
404135,"FRED DOUGLASS BL/W 158 ST",,  40.830954, -73.935990,,,0,
404136,"CENTRAL PK W/W 79 ST",,  40.780619, -73.972854,,,0,
404137,"12 AV/W 23 ST",,  40.748728, -74.007954,,,0,
404138,"BROADWAY/W 63 ST",,  40.770614, -73.982270,,,0,
404147,"W 133 ST/AMSTERDAM AV",,  40.817820, -73.953564,,,0,
404153,"7 AV/W 41 ST",,  40.755484, -73.987378,,,0,
404154,"YORK AV/E 60 ST",,  40.759558, -73.958987,,,0,
404155,"E HOUSTON ST/MOTT ST",,  40.724865, -73.994531,,,0,
404160,"E 42 ST/MADISON AV",,  40.752533, -73.978889,,,0,
404161,"10 AV/W 19 ST",,  40.745426, -74.005684,,,0,
404168,"5 AV/E 96 ST",,  40.788214, -73.955636,,,0,
404171,"LEXINGTON AV/E 59 ST",,  40.762106, -73.968336,,,0,
404190,"BROADWAY/MORRIS ST",,  40.705215, -74.013850,,,0,
404191,"MADISON AV/E 95 ST",,  40.787080, -73.954126,,,0,
404194,"W 179 ST/WADSWORTH AV",,  40.848514, -73.935778,,,0,
404219,"BROADWAY/WARREN ST",,  40.713766, -74.006749,,,0,
404224,"BROADWAY/CHAMBERS ST",,  40.714037, -74.006484,,,0,
404225,"BROADWAY/BARCLAY ST",,  40.711896, -74.008313,,,0,
404232,"BROADWAY/W 131 ST",,  40.817322, -73.956852,,,0,
404244,"7 AV/W 23 ST",,  40.743812, -73.995983,,,0,
404245,"FRED DOUGLASS BL/W 119 ST",,  40.806090, -73.954262,,,0,
404253,"1 AV/E 62 ST",,  40.761632, -73.960457,,,0,
404255,"LEXINGTON AV/E 124 ST",,  40.803886, -73.937851,,,0,
404258,"RIVERSIDE DR/W 122 ST",,  40.812935, -73.962700,,,0,
404259,"RIVERSIDE DR/W 122 ST",,  40.812237, -73.963936,,,0,
404260,"BROADWAY/W 113 ST",,  40.806258, -73.964954,,,0,
404262,"BROADWAY/W 120 ST",,  40.810341, -73.961983,,,0,
404264,"AV C/E 23 ST",,  40.735175, -73.975191,,,0,
404266,"SUTTON PL/E 58 ST",,  40.757808, -73.960430,,,0,
404274,"W 116 ST/MALCOLM X BL",,  40.802292, -73.950025,,,0,
404278,"CENTRAL PK N/MALCOLM X BL",,  40.798284, -73.952747,,,0,
404279,"10 AV/W 37 ST",,  40.756715, -73.997444,,,0,
404283,"ADAM C POWELL BL/W 125 ST",,  40.809158, -73.947978,,,0,
404286,"W 14 ST/HUDSON ST",,  40.740620, -74.004803,,,0,
404287,"ESSEX ST/ E BROADWAY",,  40.714094, -73.990301,,,0,
404289,"RIVERSIDE DR/W 74 ST",,  40.782040, -73.984870,,,0,
404290,"RIVERSIDE DR/W 82 ST",,  40.787205, -73.981110,,,0,
404308,"W 86 ST/COLUMBUS AV",,  40.786707, -73.972454,,,0,
404320,"AMSTERDAM AV/W 89 ST",,  40.789490, -73.973569,,,0,
404321,"LEXINGTON AV/E 83 ST",,  40.777227, -73.957311,,,0,
404325,"FRED DOUGLASS BL/MACOMBS PL",,  40.825817, -73.939658,,,0,
404327,"PEARL ST / PEARL ST",,  40.710832, -74.000822,,,0,
404333,"MALCOLM X BL/W 122 ST",,  40.806067, -73.946561,,,0,
404334,"MALCOLM X BL/W 125 ST",,  40.808040, -73.945118,,,0,
404335,"MALCOLM X BL/W 142 ST",,  40.818795, -73.937266,,,0,
404336,"MALCOLM X BL/W 127 ST",,  40.808753, -73.944937,,,0,
404337,"MALCOLM X BL/W 129 ST",,  40.810005, -73.944029,,,0,
404338,"MALCOLM X BL/W 137 ST",,  40.815080, -73.940329,,,0,
404339,"MALCOLM X BL/W 139 ST",,  40.816345, -73.939396,,,0,
404341,"MALCOLM X BL / W 116 ST",,  40.802336, -73.949280,,,0,
404350,"MAIN RWDY/OPP ICAHN STADIUM",,  40.792588, -73.923489,,,0,
404352,"MAIN RDY/AFTER EXIT RAMP",,  40.796137, -73.919511,,,0,
404353,"MAIN RDY/ICAHN STADIUM",,  40.792872, -73.923390,,,0,
404355,"MAIN RDY/OPP CLARKE THOMAS BLDG",,  40.786410, -73.929197,,,0,
404356,"SUNKEN GARDEN LOOP/EMPLOYMENT CTR",,  40.786171, -73.931819,,,0,
404362,"ST CLAIRE PL/W 125 ST",,  40.817065, -73.959775,,,0,
404681,"E 86 ST/2 AV",,  40.777590, -73.951259,,,0,
404820,"W 34 ST/7 AV",,  40.751116, -73.991115,,,0,
404821,"RIVERSIDE DR/TIEMANN PL",,  40.816069, -73.961163,,,0,
404822,"RIVERSIDE DR/TIEMANN PL",,  40.816305, -73.961905,,,0,
404824,"FRED DOUGLASS BL/W 147 ST",,  40.823913, -73.941264,,,0,
404825,"FRED DOUGLASS BL/W 148 ST",,  40.824928, -73.940255,,,0,
404826,"WEST END AV/W 64 ST",,  40.774490, -73.988410,,,0,
404832,"HUDSON ST/SPRING ST",,  40.726026, -74.007396,,,0,
404833,"E 23 ST/PARK AV S",,  40.740491, -73.986847,,,0,
404834,"W 23 ST/11 AV",,  40.748632, -74.006633,,,0,
404837,"ADAM C POWELL BL/W 153 ST",,  40.826531, -73.935264,,,0,
404838,"COLUMBUS AV/W 80 ST",,  40.782804, -73.974976,,,0,
404843,"PIKE ST/MADISON ST",,  40.712880, -73.992288,,,0,
404844,"PIKE ST/MADISON ST",,  40.712625, -73.992622,,,0,
404846,"8 AV/W 49 ST",,  40.761902, -73.986239,,,0,
404847,"8 AV/W 31 ST",,  40.749952, -73.994947,,,0,
404850,"PEARL ST/FULTON ST",,  40.707550, -74.003857,,,0,
404851,"PARK ROW/ST JAMES PL",,  40.713363, -73.998736,,,0,
404853,"AMSTERDAM AV/W 161 ST",,  40.835239, -73.940199,,,0,
404854,"LEXINGTON AV/E 77 ST",,  40.773296, -73.960162,,,0,
404855,"RIVERSIDE DR/W 89 ST",,  40.791724, -73.978862,,,0,
404856,"E 110 ST/MADISON AV",,  40.796412, -73.948038,,,0,
404857,"PARK ROW/ST JAMES PL",,  40.713374, -73.998679,,,0,
404858,"E 79 ST/MADISON AV",,  40.776040, -73.961688,,,0,
404859,"YORK AV/E 87 ST",,  40.776178, -73.946977,,,0,
404860,"E 79 ST/LEXINGTON AV",,  40.775117, -73.959104,,,0,
404863,"HARRISON ST/HUDSON ST",,  40.718596, -74.009167,,,0,
404864,"HARRISON ST/WEST ST",,  40.718895, -74.012053,,,0,
404865,"W 70 ST/FREEDOM PL",,  40.778911, -73.986687,,,0,
404871,"CENTRAL PK W/COLUMBUS CIR",,  40.768686, -73.981340,,,0,
404872,"8 AV/W 46 ST",,  40.759796, -73.987859,,,0,
404876,"W 168 ST/AUDUBON AV",,  40.840581, -73.938431,,,0,
404881,"9 AV/W 23 ST",,  40.746264, -74.001642,,,0,
404895,"6 AV/SPRING ST",,  40.725672, -74.003915,,,0,
404909,"2 AV/E 36 ST",,  40.746181, -73.974949,,,0,
404911,"W 106 ST/BROADWAY",,  40.801154, -73.967576,,,0,
404915,"FREDERICK DOUGLASS BL/W 116 ST",,  40.804152, -73.955672,,,0,
404916,"BROADWAY/PRINCE ST",,  40.724012, -73.998084,,,0,
404918,"BROADWAY/W 167 ST",,  40.840167, -73.940639,,,0,
404919,"8 AV/W 43 ST",,  40.758004, -73.989093,,,0,
404920,"FT WASHINGTON AV/W 165 ST",,  40.840558, -73.942825,,,0,
404921,"FT WASHINGTON AV/W 168 ST",,  40.842408, -73.942090,,,0,
404922,"MADISON ST/GRAND ST",,  40.713503, -73.980417,,,0,
404926,"W 24 St/11 AV",,  40.749997, -74.007489,,,0,
404927,"W 24 ST/12 AV",,  40.749969, -74.007803,,,0,
404928,"ST NICHOLAS AV/W 193 ST",,  40.856667, -73.928265,,,0,
404936,"PARK AV S/E 18 ST",,  40.736788, -73.988625,,,0,
404938,"E 60 ST/YORK AV",,  40.759310, -73.959464,,,0,
404940,"W HOUSTON ST/VARICK ST",,  40.728569, -74.004612,,,0,
404947,"LEXINGTON AV/E 92 ST",,  40.782940, -73.953141,,,0,
404948,"W 49 ST/8 AV",,  40.761998, -73.987034,,,0,
404949,"AMSTERDAM AV/W 161 ST",,  40.835536, -73.940181,,,0,
404950,"E 34 ST /1 AV",,  40.743774, -73.973731,,,0,
404951,"FERRY TERMINAL/FDR DRIVE",,  40.743486, -73.971891,,,0,
404963,"ADAM C POWELL BL/WEST 119 ST",,  40.805343, -73.950713,,,0,
404969,"CHAMBERS ST/GREENWICH ST",,  40.716076, -74.010616,,,0,
404973,"CHAMBERS ST/GREENWICH ST",,  40.716554, -74.011352,,,0,
404976,"CHAMBERS ST/W BROADWAY",,  40.715377, -74.009105,,,0,
404977,"CHAMBERS ST/CHURCH ST",,  40.714769, -74.007746,,,0,
404978,"MALCOLM X B / W 119 ST",,  40.803636, -73.948676,,,0,
404979,"BATTERY PL/3 PL",,  40.707270, -74.017356,,,0,
404980,"BATTERY PL/1 PL",,  40.705837, -74.018088,,,0,
404983,"BATTERY PL/WEST ST",,  40.704998, -74.017384,,,0,
404986,"BATTERY PL/3 PL",,  40.707616, -74.016909,,,0,
404987,"CENTRAL PK W/W 66 ST",,  40.772331, -73.978980,,,0,
404988,"CENTRAL PK W/W 64 ST",,  40.771082, -73.979842,,,0,
404990,"SPRING ST/GREENWICH ST",,  40.725908, -74.008740,,,0,
404991,"AV OF THE AMERICAS/W 18 ST",,  40.739588, -73.995074,,,0,
404992,"AV OF THE AMERICAS/W 57 ST",,  40.764401, -73.977001,,,0,
404994,"MADISON AV/E 66 ST",,  40.767836, -73.968184,,,0,
404995,"1 AV/E 28 ST",,  40.740570, -73.975823,,,0,
405003,"E 92 ST/YORK AV",,  40.779755, -73.944535,,,0,
405006,"E BROADWAY/CATHERINE ST",,  40.713376, -73.997392,,,0,
405014,"MALCOLM X BL/W 132 ST",,  40.812501, -73.941856,,,0,
405015,"MAIN RDY/OPP PARK & RECREATION",,  40.799485, -73.922512,,,0,
405024,"CHURCH ST/WORTH ST",,  40.716678, -74.006421,,,0,
405026,"9 AV/W 40 ST",,  40.756899, -73.993896,,,0,
405053,"MURRAY ST/NORTH END AV",,  40.715482, -74.015376,,,0,
405054,"VESEY ST/NORTH END AV",,  40.714631, -74.015692,,,0,
405056,"NORTH END AV/WARREN ST",,  40.717072, -74.014087,,,0,
405057,"LEXINGTON AV/E 119 ST",,  40.800189, -73.940520,,,0,
405061,"3 AV/E 21 ST",,  40.737436, -73.984124,,,0,
405062,"NORTH END AV/WARREN ST",,  40.717251, -74.014498,,,0,
405063,"MURRAY ST/NORTH END AV",,  40.715733, -74.015035,,,0,
405065,"WEST ST/CHAMBERS ST",,  40.717479, -74.012550,,,0,
405066,"LEXINGTON AV/E 89 ST",,  40.781130, -73.954451,,,0,
405069,"AMSTERDAM AV/W 175 ST",,  40.843810, -73.934076,,,0,
405070,"AMSTERDAM AV/W 165 ST",,  40.837603, -73.938646,,,0,
405071,"W 70 ST/WEST END AV",,  40.778705, -73.985788,,,0,
405073,"AMSTERDAM AV/W 158 ST",,  40.833638, -73.941374,,,0,
405074,"AMSTERDAM AV/W 152 ST",,  40.829905, -73.944107,,,0,
405075,"AMSTERDAM AV/W 164 ST",,  40.837468, -73.938575,,,0,
405076,"AMSTERDAM AV/W 167 ST",,  40.839672, -73.936970,,,0,
405077,"AMSTERDAM AV/W 176 ST",,  40.845150, -73.932962,,,0,
405078,"AMSTERDAM AV/W 135 ST",,  40.818605, -73.952522,,,0,
405079,"AMSTERDAM AV/W 125 ST",,  40.812905, -73.956867,,,0,
405084,"BROAD ST/WATER ST",,  40.702539, -74.011487,,,0,
405086,"WEST END AV/WEST 70 ST",,  40.778725, -73.985135,,,0,
405087,"MANHATTAN AV/W 111 ST",,  40.801730, -73.959138,,,0,
405091,"FT GEORGE AV/66 FORT GEORGE AV",,  40.858330, -73.925388,,,0,
405092,"MANHATTAN AV/W 113 ST",,  40.803344, -73.957959,,,0,
405093,"MANHATTAN AV/W 119 ST",,  40.807075, -73.955421,,,0,
405098,"1 AV / 4 ST",,  40.725463, -73.986785,,,0,
405100,"1 AV/E 82 ST",,  40.774585, -73.950985,,,0,
405103,"AMSTERDAM AV/W 149 ST",,  40.827662, -73.945755,,,0,
405111,"ST NICHOLAS AV/W 165 ST",,  40.838389, -73.939810,,,0,
405112,"RIVERSIDE BL/W 69 ST",,  40.779060, -73.988377,,,0,
405118,"W 42 ST/12 AV",,  40.761953, -74.000937,,,0,
405120,"GREENWICH ST/HORATIO ST",,  40.738674, -74.006416,,,0,
405124,"SOUTH END AV/GATEWAY PLAZA",,  40.710619, -74.016257,,,0,
405125,"WEST THAMES ST/SOUTH END AV",,  40.708324, -74.017266,,,0,
405130,"BOWERY/E 1 ST",,  40.725148, -73.992108,,,0,
405133,"HUDSON ST/W 13 ST",,  40.740728, -74.005262,,,0,
405135,"E 116 ST/3 AV",,  40.798172, -73.940408,,,0,
405138,"1 AV/E 60 ST",,  40.759751, -73.961795,,,0,
405140,"MAIN RDY/OPP GOLF CTR PARKING",,  40.794984, -73.921694,,,0,
405151,"10 AV/WEST 16 ST",,  40.743645, -74.007041,,,0,
405152," W 14 St/10 AV",,  40.742056, -74.007914,,,0,
405155,"3 AV/E 9 ST",,  40.730389, -73.989235,,,0,
405157,"11 AV/W 15 ST",,  40.743388, -74.008400,,,0,
405165,"ESSEX ST/CANAL ST",,  40.715445, -73.989723,,,0,
405169,"E 79 ST/LEXINGTON AV",,  40.774947, -73.959139,,,0,
405172,"W HOUSTON ST/GREENE ST",,  40.725949, -73.998326,,,0,
405179,"5 AV/W 44 ST",,  40.754870, -73.979966,,,0,
405181,"3 AV/E 116 ST",,  40.797798, -73.940040,,,0,
405182,"FRED DOUGLASS BL/W 125 ST",,  40.810559, -73.950766,,,0,
405185,"AMSTERDAM AV/W 183 ST",,  40.849806, -73.929603,,,0,
405186,"AMSTERDAM AV/W 185 ST",,  40.850616, -73.929187,,,0,
405193,"E 49 ST/2 Av",,  40.754490, -73.969364,,,0,
405227,"ST NICHOLAS AV/W 147 ST",,  40.825404, -73.943522,,,0,
405230,"BROADWAY/DUANE ST",,  40.715143, -74.005594,,,0,
405231,"E 23 ST/BROADWAY",,  40.741351, -73.989013,,,0,
405233,"2 AV/E 92 ST",,  40.781510, -73.949159,,,0,
405234,"BROADWAY/WEST 120 ST",,  40.810369, -73.962559,,,0,
405237,"W 72 ST/BROADWAY",,  40.778765, -73.982161,,,0,
405241,"E 42 ST/PARK AV",,  40.752099, -73.977395,,,0,
405247,"FREDERICK DOUGLASS BL/114 ST",,  40.803307, -73.956318,,,0,
405248,"BROADWAY/W 97 ST",,  40.795174, -73.971197,,,0,
405249,"BROADWAY/W 97 ST",,  40.794932, -73.971848,,,0,
405256,"TRINITY PL/MORRIS ST",,  40.706259, -74.014231,,,0,
405265,"W 14 ST/9 AV",,  40.741148, -74.005521,,,0,
405266,"BROADWAY/WALKER ST",,  40.718758, -74.002543,,,0,
405269,"BOWERY/HESTER ST",,  40.717343, -73.995300,,,0,
405272,"EAST 24 ST/LEXINGTON AV",,  40.739992, -73.984009,,,0,
405279,"CHURCH ST/WARREN ST",,  40.714147, -74.008419,,,0,
405283,"COLUMBUS AV/W 66 ST",,  40.773394, -73.981807,,,0,
405284,"MALCOLM X BL/W 146 ST",,  40.821082, -73.935896,,,0,
405285,"11 AV/W 34 ST",,  40.755629, -74.002186,,,0,
405289,"FREDERICK DOUGLASS/W 121 ST",,  40.807524, -73.953286,,,0,
405290,"COLUMBUS AV/W 63 ST",,  40.771841, -73.983006,,,0,
405291,"7 AV/W 57 ST",,  40.765727, -73.980083,,,0,
405293,"7 AV/WEST 55 ST",,  40.763975, -73.981348,,,0,
405297,"7 AV/W 44 ST",,  40.757255, -73.986211,,,0,
405298,"7 AV/W 17 ST",,  40.740352, -73.998492,,,0,
405299,"W 58 ST/BROADWAY",,  40.767155, -73.981981,,,0,
405307,"2 AV/E 89 ST",,  40.779657, -73.950523,,,0,
405308,"WEST 66 ST/FREEDOM PL",,  40.776500, -73.988634,,,0,
405311,"E HOUSTON ST/1 AV",,  40.723164, -73.988978,,,0,
405315,"PLEASANT AV/E 117 ST",,  40.795918, -73.932694,,,0,
405316,"9 AV/W 25 ST",,  40.747568, -74.000712,,,0,
405319,"MADISON ST/CATHERINE ST",,  40.711930, -73.997157,,,0,
405320,"ALLEN ST/GRAND ST",,  40.717171, -73.991222,,,0,
405323,"1 AV/E 25 ST",,  40.737991, -73.977607,,,0,
405336,"2 AV/E 28 ST",,  40.741114, -73.978641,,,0,
405337,"WATER ST/GOUVERNEUR LA",,  40.704661, -74.008294,,,0,
405340,"2 AV/E 13 ST",,  40.731790, -73.985449,,,0,
405342,"2 AV/E 32 ST",,  40.744211, -73.976350,,,0,
405347,"2 AV/E 106 ST",,  40.790860, -73.942431,,,0,
405348,"2 AV/E 115 ST",,  40.795919, -73.938770,,,0,
405350,"COLUMBIA ST/HOUSTON ST",,  40.719624, -73.978732,,,0,
405352,"LEWIS ST/GRAND ST",,  40.714038, -73.979844,,,0,
405353,"WEST END AV/W 61 ST",,  40.772910, -73.989366,,,0,
405359,"PIKE ST/SOUTH  ST",,  40.710615, -73.991893,,,0,
405361,"E HOUSTON ST/CROSBY ST",,  40.725297, -73.996086,,,0,
405365,"E 72 ST/2 AV",,  40.768711, -73.958282,,,0,
405368,"1 AV/E 23 ST",,  40.736654, -73.978633,,,0,
405369,"E 79 ST/3 AV",,  40.774263, -73.957413,,,0,
405372,"GRAND ST/FDR DRIVE",,  40.713361, -73.977793,,,0,
405373,"ALLEN ST/HESTER ST",,  40.716371, -73.992021,,,0,
405374,"W 41 ST/8 AV",,  40.756549, -73.990123,,,0,
405375,"E 34 ST/5 AV",,  40.748399, -73.984350,,,0,
405376,"BROADWAY/WEST 57 ST",,  40.766529, -73.981964,,,0,
405377,"BROADWAY/FRANKLIN ST",,  40.717550, -74.003528,,,0,
405380,"MADISON AV/E 28 ST",,  40.744189, -73.985425,,,0,
405384,"FREDERICK DOUGLASS BL/125 ST",,  40.810055, -73.951410,,,0,
405389,"YORK AV/E 62 ST",,  40.760682, -73.958310,,,0,
405390,"E 23 ST/1 AV",,  40.736864, -73.978704,,,0,
405393,"8 AV/W  56 ST",,  40.766284, -73.983072,,,0,
405394,"BROADWAY/WEST 105 ST",,  40.801659, -73.967648,,,0,
405396,"1 AV/E 27 ST",,  40.739627, -73.976496,,,0,
405416,"W 125 ST/ST NICHOLAS AV",,  40.810371, -73.951805,,,0,
405443,"11 AV/W 54 ST",,  40.768230, -73.993010,,,0,
405444,"11 AV/W 50 ST",,  40.765989, -73.994643,,,0,
405445,"11 AV/ W 47 ST",,  40.764108, -73.996012,,,0,
405446,"11 AV/W 44 ST",,  40.762000, -73.997587,,,0,
405447,"11 AV/W 38 ST",,  40.758109, -74.000379,,,0,
405450,"11 AV/W 26 ST",,  40.750895, -74.005642,,,0,
405451,"11 AV/W 23 ST",,  40.748324, -74.007569,,,0,
405452,"8 Av/W 12 ST",,  40.737903, -74.004356,,,0,
405455,"12 AV/ W 27 ST",,  40.752215, -74.007578,,,0,
405456,"12 AV/W 30 ST",,  40.754840, -74.006232,,,0,
405457,"12 AV/W 33 ST",,  40.756398, -74.005125,,,0,
405458,"12 AV/W 40 ST",,  40.760765, -74.001924,,,0,
405459,"12 AV/W 52 ST",,  40.768082, -73.995597,,,0,
405460,"12 AV/W 55 ST",,  40.769942, -73.994246,,,0,
405468,"WEST END AV/W 64 ST",,  40.774840, -73.988050,,,0,
405480,"3 AV/E 57 ST",,  40.760140, -73.967523,,,0,
405486,"5 AV/W 36 ST",,  40.749577, -73.983774,,,0,
405488,"3 AV/E 53 ST",,  40.757751, -73.969235,,,0,
405489,"MADISON AV/E 67 ST",,  40.768789, -73.967515,,,0,
405490,"MADISON AV/E 63 ST",,  40.766452, -73.969245,,,0,
405491,"5 AV/E 69 ST",,  40.770598, -73.968479,,,0,
405512,"10 AV/W 40 ST",,  40.758404, -73.996324,,,0,
405531,"11 AV/ W 18 ST",,  40.745731, -74.007993,,,0,
405541,"BROADWAY/W 89 ST",,  40.790087, -73.975267,,,0,
405562,"11 AV/W 58 ST",,  40.771083, -73.990735,,,0,
405564,"11 AV/W 29 ST",,  40.752582, -74.004396,,,0,
405567,"MADISON AV/E 81 ST",,  40.777539, -73.961164,,,0,
450051,"3 AV/E 63 ST",,  40.764143, -73.964582,,,0,
450123,"5 AV/W 50 ST",,  40.758880, -73.977029,,,0,
450222,"W 18 ST / 10 AV",,  40.744323, -74.005938,,,0,
503357,"HOYT AV/31 ST",,  40.770207, -73.917431,,,0,
503848,"LaGUARDIA/TERMINAL C",,  40.771098, -73.865943,,,0,
503853,"LAGUARDIA/TERMINAL A - MARINE AIR TERMINAL",,  40.772914, -73.886129,,,0,
503855,"DITMARS BL/GRAND CENTRAL PY",,  40.767279, -73.887997,,,0,
503870,"ASTORIA BL/STEINWAY ST",,  40.769407, -73.909755,,,0,
503876,"23 AV/87 ST",,  40.767279, -73.882370,,,0,
504007,"HOYT AV/31 ST",,  40.771069, -73.917561,,,0,
504023,"94 ST/23 AV",,  40.768482, -73.876211,,,0,
504417,"23 AV/82 ST",,  40.766378, -73.887180,,,0,
504423,"ASTORIA BL S/77 ST",,  40.765585, -73.891447,,,0,
504517,"ASTORIA BL N/77 ST",,  40.766799, -73.892507,,,0,
505254,"ASTORIA BL S/STEINWAY ST",,  40.768790, -73.910815,,,0,
803001,"W 57 ST/8 AV",,  40.766495, -73.982489,,,0,
803002,"SOUTH ST/WHITEHALL ST",,  40.701609, -74.012226,,,0,
803003,"146 ST/LENOX AV",,  40.821204, -73.936042,,,0,
803008,"W 58 St/BROADWAY",,  40.767088, -73.981842,,,0,
803019,"SOUTH ST/WHITEHALL ST",,  40.701536, -74.012485,,,0,
803020,"AMSTERDAM AV/193 ST",,  40.855683, -73.925293,,,0,
803021,"HELL GATE CIRCLE/CENTRAL RD",,  40.789986, -73.925758,,,0,
803024,"W 146 ST/MALCOLM X  BL",,  40.821199, -73.936118,,,0,
803026,"SUNKEN GARDEN LOOP/CHARLES H GAY CTR",,  40.785090, -73.930827,,,0,
803028,"HELL GATE CIRCLE/Nr Tom CLARKE Bldg",,  40.785379, -73.929126,,,0,
803029,"HELL GATE CIRCLE/Opp ODYSSEY House",,  40.784564, -73.927626,,,0,
803030,"HELL GATE CIRCLE/FIELD 61",,  40.785971, -73.925604,,,0,
803034,"SUNKEN GARDEN LOOP/Charles Gay CTR",,  40.785095, -73.930841,,,0,
803054,"E 126 ST/2 AV",,  40.803150, -73.932264,,,0,
803055,"12 AV/42 ST",,  40.762148, -74.001440,,,0,
803056,"W 66 ST/FREEDOM PL",,  40.776491, -73.988726,,,0,
803057,"W 66 ST/WEST END AV",,  40.775906, -73.986807,,,0,
803058,"E 72 ST/YORK AV",,  40.766958, -73.954141,,,0,
803059,"PLEASANT AV/E 120 ST",,  40.797614, -73.931010,,,0,
803066,"E 105 ST/FDR DR",,  40.788214, -73.938425,,,0,
803067,"MARGARET CORBIN DR/CLOISTERS",,  40.865644, -73.932059,,,0,
803077,"PARK ROW/WORTH ST",,  40.713396, -73.999059,,,0,
803079,"W 34 ST/HUDSON BL",,  40.755366, -74.000858,,,0,
803080,"W 44 ST/6 AV",,  40.755891, -73.982784,,,0,
803081,"W 44 St/6 AV",,  40.755986, -73.982997,,,0,
803082,"W 31 ST/6 AV",,  40.747790, -73.988832,,,0,
803083,"6 AV/W 31 ST",,  40.748042, -73.988957,,,0,
803094,"VESEY ST/NORTH END AV",,  40.714530, -74.015356,,,0,
803095,"W 57 ST/5 AV",,  40.763031, -73.974302,,,0,
803098,"8 AV/W 34 ST",,  40.752301, -73.993250,,,0,
803099,"9 AV/W 42 ST",,  40.758617, -73.992640,,,0,
803105,"WARREN ST/CHURCH ST",,  40.714232, -74.008257,,,0,
803106,"MURRAY ST/CHURCH ST",,  40.714515, -74.010225,,,0,
803107,"MURRAY ST/GREENWICH ST",,  40.715042, -74.011504,,,0,
803108,"SOUTH END AV/ALBANY ST",,  40.710277, -74.016204,,,0,
803109,"E HOUSTON ST/FORSYTH ST",,  40.723377, -73.990631,,,0,
803115,"GRAND ST/FDR DR",,  40.713350, -73.977745,,,0,
803117,"E 57 ST/MADISON AV",,  40.762383, -73.972425,,,0,
803120,"SOUTH FERRY/TERMINAL",,  40.701910, -74.013846,,,0,
803121,"SOUTH FERRY/TERMINAL",,  40.702045, -74.013580,,,0,
803130,"W 34 ST/12 AV",,  40.756670, -74.004310,,,0,
803131,"W 34 ST/12 AV",,  40.756534, -74.003941,,,0,
803144,"W 41 ST/8 AV",,  40.756408, -73.989815,,,0,
803147,"WARREN ST/GREENWICH ST",,  40.715614, -74.011327,,,0,
803151,"49 ST/1 AV",,  40.753385, -73.966854,,,0,
803153,"E 126 ST/2 AV",,  40.803873, -73.933880,,,0,
803154,"E 126 ST/2 AV",,  40.803985, -73.934214,,,0,
803156,"BROADWAY / W 123 ST",,  40.812212, -73.960595,,,0,
803157,"BROADWAY / W 135 ST",,  40.819972, -73.955401,,,0,
803158,"LEXINGTON AV/E 64 ST",,  40.765179, -73.966088,,,0,
803159,"YORK AV/E 74 ST",,  40.768271, -73.952657,,,0,
803160,"AV OF THE AMERICAS/SPRING ST",,  40.725275, -74.003983,,,0,
803161,"AMSTERDAM AV/W 120 ST",,  40.809531, -73.959187,,,0,
803162,"5 AV/E 81 ST",,  40.778538, -73.962680,,,0,
803163,"LEXINGTON AV/E 52 ST",,  40.757636, -73.971598,,,0,
803164,"BATTERY PL/WASHINGTON ST",,  40.704761, -74.015579,,,0,
803165,"MALCOLM X BL/W 124 ST",,  40.807032, -73.946242,,,0,
803166,"W 86 ST/BROADWAY",,  40.788263, -73.976297,,,0,
803177,"AV D/LOOP",,  40.724689, -73.974548,,,0,
803180,"E 96 ST/5 AV",,  40.787674, -73.955448,,,0,
803182,"2 AV/E 96 ST",,  40.784062, -73.947274,,,0,
803184,"STATE ST/WHITEHALL ST",,  40.702420, -74.013049,,,0,
803185,"STATE ST/WHITEHALL ST",,  40.702353, -74.013036,,,0,
803192,"CENTRE ST/BROOME ST",,  40.720574, -73.997755,,,0,
803194,"RIVERBANK/STATE PARK",,  40.826815, -73.955386,,,0,
803195,"RIVERBANK/STATE PARK",,  40.826647, -73.955503,,,0,
803215,"triboro br/ramp",,  40.796418, -73.921784,,,0,
803228,"2 AV/E 111 ST",,  40.793625, -73.940328,,,0,
803238,"RIVERS EDGE RD/MAN PSYCH CTR ENT",,  40.790347, -73.928631,,,0,
803239,"MAIN ROADWAY/RIVERS EDGE RD",,  40.789129, -73.926861,,,0,
804142,"LAGUARDIA/TERMINALS  C",,  40.770877, -73.865556,,,0,
804143,"LAGUARDIA INTERNAL RY/term c loop",,  40.771429, -73.866313,,,0,
823252,"LEWIS ST/Delancy (not used)",,  40.715465, -73.979120,,,0,
903002,"AV C/E 20 ST",,  40.733004, -73.974597,,,0,
903003,"E 97 ST/1 AV",,  40.784210, -73.944775,,,0,
903004,"W 96 ST/WEST END AV",,  40.795103, -73.973090,,,0,
903025,"GRAND ST/FDR DR",,  40.713355, -73.978278,,,0,
903027,"WATERSIDE/WATERSIDE",,  40.737552, -73.973846,,,0,
903028,"FERRY TERMINAL/FDR DR",,  40.743306, -73.971943,,,0,
903030,"WEST ST/CHRISTOPHER ST",,  40.732493, -74.010128,,,0,
903042,"3 AV /E 125 ST",,  40.804205, -73.935368,,,0,
903046,"E 41 ST/1 AV",,  40.747979, -73.969789,,,0,
903048,"E 8 ST/LAFAYETTE ST",,  40.730039, -73.991312,,,0,
903049,"168 ST/AUDUBON AV",,  40.840644, -73.938543,,,0,
903054,"MADISON ST/ST JAMES PL",,  40.711883, -73.999430,,,0,
903063,"8 AV/12 ST",,  40.737765, -74.004512,,,0,
903074,"W 54 ST/11 AV",,  40.768191, -73.992545,,,0,
903075,"LEXINGTON AV/E 125 ST",,  40.804764, -73.937250,,,0,
903078,"W 43 ST/9 AV",,  40.758770, -73.991173,,,0,
903080,"1 AV/E 26 ST",,  40.738626, -73.977110,,,0,
903082,"12 AV/W 42 ST",,  40.762549, -74.000971,,,0,
903088,"DELANCY ST/COLUMBIA ST",,  40.716404, -73.980285,,,0,
903089,"AMSTERDAM AV/W 129 ST",,  40.814906, -73.955044,,,0,
903092,"BROADWAY/W 133 ST",,  40.818459, -73.956054,,,0,
903093,"1 AV/E 1 ST",,  40.724012, -73.987802,,,0,
903094,"E 60 ST/YORK AV",,  40.759519, -73.959889,,,0,
903102,"1 AV/ E 97 ST",,  40.784225, -73.943936,,,0,
903105,"LEXINGTON AV/E 68 ST",,  40.767745, -73.964259,,,0,
903128,"E 32 ST/5 AV",,  40.746801, -73.984816,,,0,
903129,"2 AV/E 86 ST",,  40.777996, -73.951745,,,0,
903130,"CENTRE ST/BROOME ST",,  40.720643, -73.997694,,,0,
903147,"ASTOR PL/3 AV",,  40.729567, -73.990052,,,0,
903148,"3 AV/ASTOR PL",,  40.729113, -73.990259,,,0,
903169,"central park south/7 Av (does not stop)",,  40.766677, -73.979519,,,0,
903176,"AV OF THE AMERICAS/W 14 ST",,  40.737404, -73.996752,,,0,
903209,"Columbus Circle (does not stop)",,  40.768164, -73.981327,,,0,
903218,"W 72 ST/Amsterdam av ( non-public,for GEO)",,  40.778713, -73.981767,,,0,
903219,"FT GEORGE AV/66 FT GEORGE AV",,  40.858092, -73.925535,,,0,
903228,"110 ST/FREDERICK DOUGLAS BL",,  40.800832, -73.958331,,,0,
903229,"BROADWAY/W 131 ST",,  40.817280, -73.956908,,,0,
903230,"BROADWAY/W 133 ST",,  40.818441, -73.956514,,,0,
903231,"W 178 ST/BROADWAY",,  40.848234, -73.937485,,,0,
903232,"10 AV/W15 (does not stop)",,  40.743029, -74.008083,,,0,
903233,"COL circle- does not stop",,  40.768057, -73.982525,,,0,
903234,"W 58 ST/BROADWAY (does not stop)",,  40.767493, -73.981747,,,0,
903236,"BROADWAY/W 135 ST",,  40.820642, -73.954489,,,0,
903237,"11 AV / W 17 ST",,  40.744417, -74.008150,,,0,
903250,"AV A/E HOUSTON ST",,  40.722345, -73.986267,,,0,
903266,"2 AV/E 33 ST",,  40.743851, -73.976632,,,0,
903267,"10 AV/W 34 ST",,  40.754680, -73.999023,,,0,
903275,"1 AV/E 97 ST",,  40.783781, -73.944277,,,0,
903276,"COOPER SQ/E 4 ST",,  40.727148, -73.991556,,,0,
903280,"PARK ROW/SPRUCE ST",,  40.711897, -74.006203,,,0,
903281,"PARK ROW/BEEKMAN ST",,  40.711730, -74.006841,,,0,
903282,"PARK ROW/BEEKMAN ST",,  40.711756, -74.007362,,,0,
903285,"7 AV/W 15 ST",,  40.739342, -73.999152,,,0,
903286,"W 79 ST/RIVERSIDE DR",,  40.784863, -73.982512,,,0,
904046,"lga/circle",,  40.770738, -73.867919,,,0,
904201,"LGA-SBS60 W.B. (does not stop)",,  40.771377, -73.878678,,,0,
904202,"LGA-MAT M60 W.B. (does not stop)",,  40.773047, -73.887615,,,0,
904242,"LAGUARDIA/TERMINAL B",,  40.773008, -73.872411,,,0,
904245,"La Guardia Rd/new road to Term B",,  40.771079, -73.867345,,,0,
904246,"LAGUARDIA RD/94 ST",,  40.772187, -73.875891,,,0,
904918,"EAST 92 ST/YORK AV",,  40.779873, -73.944774,,,0,
904920,"PIKE ST/SOUTH ST",,  40.710336, -73.991857,,,0,
