"stop_id","stop_code","stop_name","stop_desc","stop_lat","stop_lon","stop_url","wheelchair_boarding"
"1","ABT","Albertson","I.U. Willets Road and Albertson Avenue, between Willis Avenue and Roslyn Road.","40.772063168484","-73.641690951778","http://lirr42.mta.info/stationInfo.php?id=44","1"
"100","ISP","Islip","Islip Avenue (Route 111), between Sunrise Highway (Route 27) and Montauk Highway (Route 27A).  North of Union Boulevard, south of Moffitt Boulevard.","40.735834489563","-73.209321448531","http://lirr42.mta.info/stationInfo.php?id=120","1"
"101","IWD","Inwood","Off Doughty Boulevard, 2 blocks West of Central Avenue.","40.612287734083","-73.744183542466","http://lirr42.mta.info/stationInfo.php?id=98","1"
"102","JAM","Jamaica","93-02 Sutphin Blvd., Jamaica, NY 11435.  Corner of Sutphin Boulevard and Archer Avenue, 2 blocks south of Jamaica Avenue..The easiest way to Kennedy Airport is by Air Train.   AirTrain JFK leaves from the terminal adjacent to the Long Island Rail Road's Jamaica Station every 2 to 12 minutes, depending upon the time of day.","40.699608169502","-73.808529871584","http://lirr42.mta.info/stationInfo.php?id=15","1"
"107","KGN","Kew Gardens","Austin Street and Lefferts Boulevard, between Queens Boulevard and Metropolitan Avenue.","40.709649173337","-73.830888068322","http://lirr42.mta.info/stationInfo.php?id=11","1"
"11","BDY","Broadway","Intersection of 162nd Street and Northern Boulevard.  ","40.761653179863","-73.801766123794","http://lirr42.mta.info/stationInfo.php?id=20","1"
"111","KPK","Kings Park","Indian Head Road and Main Street, just South of Route 25A.","40.883666594112","-73.256247569798","http://lirr42.mta.info/stationInfo.php?id=63","1"
"113","LBH","Long Beach","Park Place and Park Avenue, 1/4 mile West of Long Beach Road.","40.590181700395","-73.664818219871","http://lirr42.mta.info/stationInfo.php?id=105","1"
"114","LCE","Lawrence","Lawrence Avenue and Bayview Avenue, 2 blocks West of Central Avenue.","40.615734701373","-73.735899552581","http://lirr42.mta.info/stationInfo.php?id=97","1"
"117","LHT","Lindenhurst","Wellwood Avenue and East Hoffman Avenue between Sunrise Highway (Route 27) and Montauk Highway (Route 27A).","40.688265039296","-73.36921149343","http://lirr42.mta.info/stationInfo.php?id=117","2"
"118","LIC","Long Island City","Borden Avenue and 2nd Street","40.741343427306","-73.957639216355","http://lirr42.mta.info/stationInfo.php?id=1","1"
"119","LMR","Locust Manor","Farmers Boulevard and Bedell Street.","40.675139071202","-73.76504303069","http://lirr42.mta.info/stationInfo.php?id=84","2"
"120","LNK","Little Neck","Little Neck Parkway and 39th Road, just north of Northern Boulevard. ","40.775043932267","-73.74064662099","http://lirr42.mta.info/stationInfo.php?id=24","1"
"122","LTN","Laurelton","224th Street and 141st Roadjust East of Springfield Boulevard.","40.668483044044","-73.751746866857","http://lirr42.mta.info/stationInfo.php?id=85","2"
"123","LVL","Locust Valley","Birch Hill Road / Piping Rock Road, just South of Forest Avenue.  ","40.874466974435","-73.598302844258","http://lirr42.mta.info/stationInfo.php?id=51","1"
"124","LVW","Lakeview","Woodfield Road and Eagle Avenue.","40.685855824382","-73.652137774307","http://lirr42.mta.info/stationInfo.php?id=90","1"
"125","LYN","Lynbrook","Sunrise Highway and between Peninsula Boulevard and Broadway. ","40.656058137013","-73.676070834658","http://lirr42.mta.info/stationInfo.php?id=100","1"
"126","MAK","Mattituck","Love Lane and Pike Street, just North of Route 25.","40.991793540658","-72.536062427146","http://lirr42.mta.info/stationInfo.php?id=80","1"
"127","MAV","Merillon Avenue","Nassau Boulevard and Merillon Avenue, just South of Jericho Turnpike (Route 25).","40.735169029401","-73.662521484606","http://lirr42.mta.info/stationInfo.php?id=41","1"
"129","MFD","Medford","Medford Avenue (Route 112) and Long Island Avenue, 1/4 mile South of Exit 64 off the Long Island Expressway.","40.817396646608","-72.998909462422","http://lirr42.mta.info/stationInfo.php?id=77","1"
"13","BHN","Bridgehampton","Maple Lane and Butter Lane, 1/4 mile north of Montauk Highway (Route 27A).","40.938983784659","-72.310045934299","http://lirr42.mta.info/stationInfo.php?id=135","1"
"130","MHL","Murray Hill","150th Street and 41st Avenue, just south of Roosevelt Avenue.","40.762709261196","-73.814539282071","http://lirr42.mta.info/stationInfo.php?id=19","1"
"131","MHT","Manhasset","Plandome Road and Maple Place, off Park Avenue.  Five blocks North of Route 25A.","40.796724100129","-73.699899085184","http://lirr42.mta.info/stationInfo.php?id=26","1"
"132","MIN","Mineola","Front Street and Mineola Boulevard, one block north of Old Country Road.    ","40.740347428794","-73.640862925027","http://lirr42.mta.info/stationInfo.php?id=42","1"
"135","MPK","Massapequa Park","Sunrise Highway (Route 27) and Park Boulevard.","40.677859099302","-73.454737237713","http://lirr42.mta.info/stationInfo.php?id=114","2"
"136","MQA","Massapequa","Sunrise Highway (Route 27), just East of Broadway and Route 107.","40.676930139365","-73.469055515159","http://lirr42.mta.info/stationInfo.php?id=113","1"
"14","BK","Stony Brook","North Country Road (Route 25A) and Chapman Street, just West of Nicolls Road.","40.920322518837","-73.128549431354","http://lirr42.mta.info/stationInfo.php?id=66","1"
"140","MSY","Mastic Shirley","William Floyd Parkway and Northern Boulevard, just South of 27A.","40.798988151573","-72.864422717948","http://lirr42.mta.info/stationInfo.php?id=127","1"
"141","MTK","Montauk","Edgemere Street and Fort Pond Road.  One mile north Old Montauk Highway.","41.047108960897","-71.953881026163","http://lirr42.mta.info/stationInfo.php?id=138","1"
"142","MVN","Malverne","Hempstead Avenue and Utterby Road","40.675478439206","-73.668863639489","http://lirr42.mta.info/stationInfo.php?id=89","1"
"148","NAV","Nostrand Avenue","Nostrand Avenue and Atlantic Avenue.","40.678387847361","-73.948221083404","http://lirr42.mta.info/stationInfo.php?id=13","1"
"149","NBD","Nassau Boulevard","Nassau Boulevard and South Avenue, 4 blocks South of Stewart Avenue.","40.722962452273","-73.662698233573","http://lirr42.mta.info/stationInfo.php?id=36","1"
"152","NHP","New Hyde Park","New Hyde Park Road and 2nd Avenue, just South of Jericho Turnpike (Route 25).","40.730757075652","-73.680958864193","http://lirr42.mta.info/stationInfo.php?id=40","1"
"153","NPT","Northport","Larkfield Road and Bellerose Avenue, North of Pulaski Road.","40.880649715577","-73.328485131567","http://lirr42.mta.info/stationInfo.php?id=62","1"
"154","OBY","Oyster Bay","Off Maxwell Avenue, between Shore and Larabee Avenues.","40.875337735301","-73.534033663087","http://lirr42.mta.info/stationInfo.php?id=53","1"
"155","ODE","Oceanside","Weidner Avenue and LawsonBoulevard.","40.634721021217","-73.654665821473","http://lirr42.mta.info/stationInfo.php?id=103","1"
"157","ODL","Oakdale","Montauk Highway (Route 27A) and Oakdale-Bohemia Road.","40.74343274705","-73.132435494821","http://lirr42.mta.info/stationInfo.php?id=122","1"
"16","BMR","Bellmore","Sunrise Highway (Route 27) and Bedford Avenue, North side of Sunrise Highway, between Newbridge Road and Bellmore Avenue.","40.668800434534","-73.528860158895","http://lirr42.mta.info/stationInfo.php?id=110","1"
"162","PDM","Plandome","Off Stonytown Road and Rockwood Road, near W. Circle Drive and Colonial Drive.","40.810698532132","-73.69521437574","http://lirr42.mta.info/stationInfo.php?id=27","1"
"163","PGE","Patchogue","Division Street and Ocean Avenue, Just South of Main Street.","40.761879012377","-73.015744510946","http://lirr42.mta.info/stationInfo.php?id=124","1"
"164","PJN","Port Jefferson","Route 112 (Main Street) and Oakland Avenue ","40.934553101142","-73.052501636367","http://lirr42.mta.info/stationInfo.php?id=67","1"
"165","PLN","Pinelawn","Wellwood Avenue and Long Island Avenue (on Cemetery grounds).The LIRR platform is ADA accessible, but the building at the station site, maintained by the cemetery, is not.","40.745358512169","-73.399600923985","http://lirr42.mta.info/stationInfo.php?id=70","1"
"171","PWS","Port Washington","Main Street, between Haven Avenue and South Bayles Avenue","40.829035331198","-73.687401000545","http://lirr42.mta.info/stationInfo.php?id=28","1"
"175","QVG","Queens Village","Springfield Boulevard, between 219th Street and 97th Avenue, just South of Jamaica Avenue.","40.717457854779","-73.736459889162","http://lirr42.mta.info/stationInfo.php?id=31","1"
"176","RHD","Riverhead","Osborne Avenue and Railroad Street, just North of West Main Street (Route 25).","40.9198392787","-72.666910535036","http://lirr42.mta.info/stationInfo.php?id=79","1"
"179","RON","Ronkonkoma","Hawkins Avenue, 2 blocks South of the Long Island Expressway Exit 60.","40.808086130523","-73.105940225025","http://lirr42.mta.info/stationInfo.php?id=75","1"
"180","ROS","Rosedale","Francis Lewis Boulevard and Sunrise Highway","40.665949330793","-73.7355481613","http://lirr42.mta.info/stationInfo.php?id=86","1"
"182","RSN","Roslyn","Lincoln Avenue and Railroad Avenue,  just West of Roslyn Road.","40.790478098785","-73.643261754201","http://lirr42.mta.info/stationInfo.php?id=45","1"
"183","RVC","Rockville Centre","North Village Avenue and Front Street, just North of Sunrise Highway (Route 27).","40.658318110666","-73.646549348655","http://lirr42.mta.info/stationInfo.php?id=106","1"
"184","SAB","St. Albans","Linden Boulevard and Montauk Street, off 180th Street.","40.69118348287","-73.76550936909","http://lirr42.mta.info/stationInfo.php?id=83","2"
"185","SCF","Sea Cliff","Sea Cliff Avenue, East of Glen Cove Avenue and just West of Route 107.","40.852368045296","-73.62541695304","http://lirr42.mta.info/stationInfo.php?id=48","1"
"187","SFD","Seaford","Sunrise Highway (Route 27) and Jackson Avenue.","40.67572393081","-73.486568465649","http://lirr42.mta.info/stationInfo.php?id=112","1"
"190","SHD","Southold","Youngs Avenue and Traveler Street, just North of Main Road (Route 25).","41.066320888031","-72.427880303874","http://lirr42.mta.info/stationInfo.php?id=81","1"
"191","SHN","Southampton","North Main Street, between Prospect and Willow.  One mile north of Montauk Highway.","40.894718742702","-72.390123758063","http://lirr42.mta.info/stationInfo.php?id=134","1"
"193","SJM","St. James","Lake Avenue and 2nd Street, just South of Route 25A and North of Route 25. ","40.882169306824","-73.159507246848","http://lirr42.mta.info/stationInfo.php?id=65","1"
"195","SMR","Stewart Manor","New Hyde Park Road and Manor Road, South of Stewart Avenue., North of Plaza Road.","40.723027708732","-73.68102040763","http://lirr42.mta.info/stationInfo.php?id=35","1"
"198","SPK","Speonk","Phillips Avenue and Depot Road, just North of Montauk Highway (Route 27A).","40.821315163654","-72.705262245283","http://lirr42.mta.info/stationInfo.php?id=129","1"
"199","SSM","Mets-Willets Point","Flushing Meadow Park, south of Roosevelt Avenue.","40.75239834607","-73.843700590557","http://lirr42.mta.info/stationInfo.php?id=17","2"
"2","ADL","Auburndale","Off Station Road, between 192nd Street and 39th Avenue, just north of Northern Boulevard.","40.761442879546","-73.789959265817","http://lirr42.mta.info/stationInfo.php?id=21","1"
"20","BPG","Bethpage","Stewart Avenue and Jackson Avenue, 1 mile North of Hempstead Turnpike (Route 24), off Railroad Avenue.","40.743039240046","-73.483438209526","http://lirr42.mta.info/stationInfo.php?id=68","1"
"202","STN","Smithtown","Redwood Lane and Scott Lane, off Main Street and just West of Route 111.","40.856547553946","-73.198032354995","http://lirr42.mta.info/stationInfo.php?id=64","1"
"204","SVL","Sayville","Lakeland Avenue, 1 mile South of Sunrise Highway (Route 27).","40.740353734002","-73.086455307829","http://lirr42.mta.info/stationInfo.php?id=123","1"
"205","SYT","Syosset","Oyster Bay Road (also known as Jackson Avenue) and Underhill Boulevard, 1 mile North of Jericho Turnpike (Route 25)","40.824857463326","-73.500445595649","http://lirr42.mta.info/stationInfo.php?id=58","1"
"21","BPT","Bellport","Station Road and Montauk Highway, South side of Main Street (Route 27A).","40.773738904482","-72.943965742491","http://lirr42.mta.info/stationInfo.php?id=126","1"
"211","VSM","Valley Stream","Franklin Avenue and Sunrise Highway, just West of Rockaway Avenue. ","40.661517619013","-73.704758752089","http://lirr42.mta.info/stationInfo.php?id=87","1"
"213","WBY","Westbury","Union and Post Avenues, 1/4 mile North of Old Country Road.","40.75345386364","-73.585866101374","http://lirr42.mta.info/stationInfo.php?id=55","1"
"214","WDD","Woodside","61st Street and Roosevelt Avenue","40.745850668789","-73.902975162886","http://lirr42.mta.info/stationInfo.php?id=9","1"
"215","WGH","Wantagh","Wantagh Avenue and Railroad Avenue, just North of Sunrise Highway (Route 27).","40.672990158071","-73.508964843715","http://lirr42.mta.info/stationInfo.php?id=111","1"
"216","WHD","West Hempstead","Hempstead Avenue and Hempstead Gardens Drive.","40.701960987421","-73.641643611755","http://lirr42.mta.info/stationInfo.php?id=92","1"
"217","WMR","Woodmere","Woodmere Boulevard and Cedar Lane, between Central Avenue and West Broadway.","40.631336456456","-73.71371544423","http://lirr42.mta.info/stationInfo.php?id=95","1"
"219","WWD","Westwood","The intersection of Foster Avenue and Motley Street, 1/2 mile North of East Merrick Road.","40.668372272644","-73.681208783237","http://lirr42.mta.info/stationInfo.php?id=88","1"
"220","WYD","Wyandanch","Straight Path and Long Island Avenue, off Acorn Street.","40.754801009129","-73.358065881626","http://lirr42.mta.info/stationInfo.php?id=71","1"
"223","YPK","Yaphank","Yaphank Avenue and Park Street, 1 mile North of Highway 27 (Exit 57).","40.825613186792","-72.915878482553","http://lirr42.mta.info/stationInfo.php?id=78","1"
"225","BWN","Baldwin","Sunrise Highway and Grand Avenue, North side of Sunrise Highway (Route 27).","40.656732235482","-73.607162453643","http://lirr42.mta.info/stationInfo.php?id=107","1"
"226","MRK","Merrick","Sunrise Highway (Route 27), between Hewlett Avenue and Merrick Avenue.","40.663800403938","-73.55062102286","http://lirr42.mta.info/stationInfo.php?id=109","1"
"23","BRS","Bellerose","Commonwealth Boulevard and Superior Road,  1/4 mile South of Jericho Turnpike.","40.72220443209","-73.716652885972","http://lirr42.mta.info/stationInfo.php?id=33","2"
"233","WHN","Westhampton","Station Road and Depot Road, 1/2 mile North of Montauk Highway (Route 27A).","40.830305321957","-72.650324540393","http://lirr42.mta.info/stationInfo.php?id=130","1"
"237","NYK","Penn Station","34th Street between 7th & 8th Avenues. ","40.750588444578","-73.993584084919","http://lirr42.mta.info/stationInfo.php?id=8","1"
"24","BRT","Belmont Park","At Belmont Park.","40.713687541089","-73.728297219953","http://lirr42.mta.info/stationInfo.php?id=32","1"
"241","ATL","Atlantic Terminal","Intersection of Atlantic and Flatbush Avenues and Hanson Place.","40.683595959933","-73.975671116775","http://lirr42.mta.info/stationInfo.php?id=12","1"
"25","BSD","Bayside","213th Street and  41st Avenue, off Bell Boulevard and just north of Northern Boulevard.","40.763152407322","-73.771249864065","http://lirr42.mta.info/stationInfo.php?id=22","1"
"26","BSR","Bay Shore","Park Avenue and Oak Street to Railroad Plaza, just North of Union Boulevard.","40.724433435417","-73.254082948452","http://lirr42.mta.info/stationInfo.php?id=119","1"
"27","BTA","Babylon","Railroad Avenue just West of Deer Park Avenue, 1 mile South of Sunrise Highway (Route 27).","40.700689424802","-73.324055613067","http://lirr42.mta.info/stationInfo.php?id=118","1"
"29","BWD","Brentwood","Brentwood Road and Suffolk Avenue, 1/2 mile East of Brentwood Road, just South of Suffolk Avenue.","40.780834744876","-73.243610738835","http://lirr42.mta.info/stationInfo.php?id=73","1"
"31","CAV","Centre Avenue","Forest Avenue between Rocklyn and Centre Avenue, 1 block East of Atlantic Avenue.","40.648318354302","-73.663967495726","http://lirr42.mta.info/stationInfo.php?id=101","1"
"32","CHT","Cedarhurst","Cedarhurst Avenue and Chestnut Street, 2 blocks West of Broadway.","40.622174510272","-73.726182753764","http://lirr42.mta.info/stationInfo.php?id=96","1"
"33","CI","Central Islip","Lowell and Suffolk Avenues, 1/2 mile East of Wheelers Road, 1 mile West of Veteran's Highway.","40.791853124851","-73.194860817475","http://lirr42.mta.info/stationInfo.php?id=74","1"
"349","GCT","Grand Central","From 42nd to 48th Streets between Madison and Vanderbilt Avenues","40.755162","-73.975455","","1"
"359","EMT","Elmont-UBS Arena","Take free shuttle bus from UBS Arena to station.","40.720074","-73.725549","http://lirr42.mta.info/stationInfo.php?id=139","1"
"36","CLP","Country Life Press","Intersection of Damson and Saint James Street.","40.721456558004","-73.629673860041","http://lirr42.mta.info/stationInfo.php?id=38","1"
"38","CPG","Copiague","Marconi Boulevard and Great Neck Road, just North of Oak Street.","40.681015284497","-73.398340272601","http://lirr42.mta.info/stationInfo.php?id=116","2"
"39","CPL","Carle Place","Cherry Lane and Atlantic Avenue, 1/4 mile North of Old Country Road.","40.749207043991","-73.603652420643","http://lirr42.mta.info/stationInfo.php?id=54","1"
"4","AGT","Amagansett","Main Street and Abrams Landing Road.","40.98003964435","-72.132334158689","http://lirr42.mta.info/stationInfo.php?id=137","1"
"40","CSH","Cold Spring Harbor","West Pulaski Road and East Gate Drive, just South of Woodbury Road.","40.835638317706","-73.451085909868","http://lirr42.mta.info/stationInfo.php?id=59","1"
"42","DGL","Douglaston","235th Street and 41st Avenue, off Douglaston Parkway and Wainscott Avenue.  Just north of Northern Boulevard.","40.768068624919","-73.749412651705","http://lirr42.mta.info/stationInfo.php?id=23","1"
"44","DPK","Deer Park","Intersection of Pineaire Drive, Grant (Executive) Avenue, and Long Island Avenue, between Commack Road and Sagtikos Parkway.","40.76948363844","-73.293564944726","http://lirr42.mta.info/stationInfo.php?id=72","1"
"48","EHN","East Hampton","Newtown Lane and Race Lane, 1/4 mile north of Main Street.","40.965086290451","-72.193242380184","http://lirr42.mta.info/stationInfo.php?id=136","1"
"50","ENY","East New York","Atlantic Avenue and Williams ","40.67581191072","-73.902808815532","http://lirr42.mta.info/stationInfo.php?id=14","2"
"51","ERY","East Rockaway","Ocean Avenue and Davison Place, 2 blocks North of Atlantic Avenue next to Shopping Plaza.","40.642210853009","-73.65821625512","http://lirr42.mta.info/stationInfo.php?id=102","1"
"52","EWN","East Williston","Hillside Avenue and Pennsylvania Avenue, between Willis Avenue and Roslyn Road.","40.756019095916","-73.63940763571","http://lirr42.mta.info/stationInfo.php?id=43","1"
"55","FHL","Forest Hills","Continental Avenue  (71st Ave) & Austin Street, 2 blocks South of Queens Boulevard.","40.719575563308","-73.844814015321","http://lirr42.mta.info/stationInfo.php?id=10","1"
"56","FLS","Flushing Main Street","Main Street and 41st Avenue, off Kissena Boulevard.","40.75789494155","-73.831346838214","http://lirr42.mta.info/stationInfo.php?id=18","1"
"59","FMD","Farmingdale","Off Secatague Avenue, on Front Street and Atlantic Avenue, just North of Conklin Street.","40.735915026597","-73.441238780657","http://lirr42.mta.info/stationInfo.php?id=69","1"
"63","FPK","Floral Park","Tulip and Atlantic Avenue, 1/4 mile South of Jericho Turnpike.","40.724637249062","-73.706397140779","http://lirr42.mta.info/stationInfo.php?id=34","1"
"64","FPT","Freeport","Between Henry Street and Benson Place, north of Sunrise Highway (Route 27).","40.657457992806","-73.582324012042","http://lirr42.mta.info/stationInfo.php?id=108","1"
"65","FRY","Far Rockaway","Nameoke Street and Redfern Avenue, off Central Avenue.","40.609143108666","-73.750541345398","http://lirr42.mta.info/stationInfo.php?id=99","1"
"66","GBN","Gibson","The intersection of Gibson and Munro Boulevards, South of Sunrise Highway.","40.649251729218","-73.701834833438","http://lirr42.mta.info/stationInfo.php?id=93","1"
"67","GCV","Glen Cove","Duck Pond Road and Pearsall Avenue, off Norfolk Lane.","40.865834207355","-73.616166144678","http://lirr42.mta.info/stationInfo.php?id=50","1"
"68","GCY","Garden City","7th Street between Hilton and Cathedral Avenues.","40.723101558546","-73.640361065047","http://lirr42.mta.info/stationInfo.php?id=37","1"
"71","GHD","Glen Head","Glen Head Road and School Street","40.832225307517","-73.626118215387","http://lirr42.mta.info/stationInfo.php?id=47","1"
"72","GNK","Great Neck","Middle Neck Road and Station Plaza at Great Neck Road, 1/4 mile North of Route 25A. ","40.787216474398","-73.726100459101","http://lirr42.mta.info/stationInfo.php?id=25","1"
"73","GPT","Greenport","Wiggins and 4th Streets at Ferry Dock.","41.099709911981","-72.363103955853","http://lirr42.mta.info/stationInfo.php?id=82","1"
"74","GRV","Great River","Connetquot Avenue and Hawthorne Avenue, between Sunrise Highway (Route 27) and Montauk Highway (Route 27A).","40.740444435855","-73.170195850396","http://lirr42.mta.info/stationInfo.php?id=121","1"
"76","GST","Glen Street","Cedar Swamp Road (Glen Street) and Elm Avenue, just east of Glen Cove Highway (Route 107).","40.857981115698","-73.621217154137","http://lirr42.mta.info/stationInfo.php?id=49","1"
"77","GVL","Greenvale","Off Helen Street, between Glen Cove Avenue and Glen Cove Road.   Three blocks North of 25A (Northern Boulevard).","40.815715660905","-73.62687151863","http://lirr42.mta.info/stationInfo.php?id=46","1"
"78","GWN","Greenlawn","Broadway (Centerport Road) and Boulevard Avenue, 1/4 mile North of Pulaski Road.","40.868665240936","-73.362849768605","http://lirr42.mta.info/stationInfo.php?id=61","1"
"8","AVL","Amityville","John Street, between Sunrise Highway (Route 27) and Route 27A, just west of Route 110.","40.680248589464","-73.420311922548","http://lirr42.mta.info/stationInfo.php?id=115","2"
"83","HBY","Hampton Bays","Springville Road and Goodground Road, just west of Ponquogue Avenue.","40.876609161601","-72.523949360691","http://lirr42.mta.info/stationInfo.php?id=132","1"
"84","HEM","Hempstead","Off West Columbia Street and Main Street","40.713296628618","-73.625032394185","http://lirr42.mta.info/stationInfo.php?id=39","1"
"85","HGN","Hempstead Gardens","Hempstead Gardens Drive and Chestnut Street, just East of Woodfield Road.","40.694913561152","-73.646208879636","http://lirr42.mta.info/stationInfo.php?id=91","1"
"86","HIL","Hillside Facility","Employees Only","40.70773581830","-73.77695850930","","1"
"89","HOL","Hollis","193rd Street and Woodhull Avenue, just South of Jamaica Avenue.","40.71018150656","-73.766752522213","http://lirr42.mta.info/stationInfo.php?id=30","2"
"90","HPA","Hunterspoint Avenue","Hunterspoint Avenue and Skillman Avenue off Van Dam Street.","40.742390460189","-73.946789974163","http://lirr42.mta.info/stationInfo.php?id=2","2"
"91","HUN","Huntington","New York Avenue (Route 110) and Broadway, 2 miles North of Jericho Turnpike.  ","40.85300971226","-73.409525763223","http://lirr42.mta.info/stationInfo.php?id=60","1"
"92","HVL","Hicksville","Newbridge Road (Route 106) and West Barclay Street.  One mile South of Exit 41 South off Long Island Expressway, or Exit 35 South off the Northern State Parkway.","40.767174914811","-73.528533222087","http://lirr42.mta.info/stationInfo.php?id=56","1"
"94","HWT","Hewlett","Franklin Avenue between Broadway and West Broadway.","40.636764323527","-73.705138658734","http://lirr42.mta.info/stationInfo.php?id=94","1"
"99","IPK","Island Park","Long Beach Road and Austin Boulevard.","40.601299060884","-73.654742476888","http://lirr42.mta.info/stationInfo.php?id=104","1"
